[
    {
        "id": 1017,
        "nazev": "Brněnská přehrada - přístaviště",
        "lat": 49.229108,
        "lng": 16.516838,
        "html": "AED umístěn na přístavišti - spravuje Městská policie Brno - Jednotka poříční \r\n\r\nTyp: PHILIPS",
        "address": "Přístavní 1166/40, 635 00 Brno-Bystrc, Česko",
        "image": "https://intra.zachranka.app/files/07a4c9c38ea6a7637c18f98b13ec43f3.JPG",
        "mobile": "Ano",
        "attribute_type": "60",
        "region": 1
    },
    {
        "id": 1018,
        "nazev": "Zoo Brno",
        "lat": 49.230116,
        "lng": 16.533397,
        "html": "AED umístěn ve služební vrátnici u služebního vjezdu\r\n\r\ntyp: Philips Heartstart FRx\r\n\r\n9:00 - 18:00",
        "address": "U Zoologické zahrady 46, 635 00 Brno-Brno-Bystrc, Česko",
        "image": "https://intra.zachranka.app/files/ade5cb6ae0ac7f061978d1105ec4f053.jpg",
        "mobile": "Ne",
        "attribute_type": null,
        "region": 1
    },
    {
        "id": 1019,
        "nazev": "Sportovní hala Vodova",
        "lat": 49.226961,
        "lng": 16.583967,
        "html": "AED umístěn ve služební recepci (vstup v zadní straně budovy)\r\n\r\ntyp: PHILIPS\r\n\r\n8:00 - 22:30\r\no víkendech nepravidelně dle provozu haly",
        "address": "Vodova 336/108, 612 00 Brno-Královo Pole, Česko",
        "image": "https://intra.zachranka.app/files/6300d6c28da94d309b43e994f425bc34.JPG",
        "mobile": "Ne",
        "attribute_type": null,
        "region": 1
    },
    {
        "id": 1020,
        "nazev": "Rektorát Masarykovy Univerzity Brno",
        "lat": 49.198561,
        "lng": 16.605114,
        "html": "AED umístěn na vrátnici rektorátu Masarykovy univerzity\r\n\r\nTyp: PHILIPS",
        "address": "Žerotínovo nám. 9, 602 00 Brno-Brno-střed, Česko",
        "image": "https://intra.zachranka.app/files/0cd7232290424469ebd1dec6dc6b76af.JPG",
        "mobile": "Ne",
        "attribute_type": null,
        "region": 1
    },
    {
        "id": 1021,
        "nazev": "Hrad Špilberk ",
        "lat": 49.194846,
        "lng": 16.599347,
        "html": "AED umístěn v místnosti ostrahy\r\n\r\nTyp: PHILIPS\r\n\r\nNONSTOP",
        "address": "Špilberk 210/1, 602 00 Brno-střed-Brno-město, Česko",
        "image": "https://intra.zachranka.app/files/20b3aea47217c70efed1d440773be9a3.JPG",
        "mobile": "Ne",
        "attribute_type": null,
        "region": 1
    },
    {
        "id": 1022,
        "nazev": "Dopravní podnik Brno - předprodej jízdenek",
        "lat": 49.190605,
        "lng": 16.594132,
        "html": "AED umístěn v předprodeji jízdenek DPMB (naproti klášteru)\r\n\r\nTyp: PHILIPS",
        "address": "Mendlovo nám. 616/19, 603 00 Brno-střed-Staré Brno, Česko",
        "image": "https://intra.zachranka.app/files/2616df287bf22735bfcca680a058aadf.JPG",
        "mobile": "Ne",
        "attribute_type": null,
        "region": 1
    },
    {
        "id": 1023,
        "nazev": "Kongresové centrum - Výstaviště",
        "lat": 49.187727,
        "lng": 16.58227,
        "html": "AED umístěn na vrátnici kongresového centra\r\n\r\nTyp: PHILIPS",
        "address": "Výstaviště 405/1, 647 00 Brno-střed-Pisárky, Česko",
        "image": "https://intra.zachranka.app/files/df97560a6e725c3b9be356ac620261e1.JPG",
        "mobile": "Ne",
        "attribute_type": null,
        "region": 1
    },
    {
        "id": 1024,
        "nazev": "Pasáž KB a.s, nám. Svobody, Brno",
        "lat": 49.195058,
        "lng": 16.607384,
        "html": "AED umístěn u pobočky Komerční banky\r\n\r\nTyp: PHILIPS",
        "address": "nám. Svobody 92/21, 602 00 Brno-střed-Brno-město, Česko",
        "image": "https://intra.zachranka.app/files/5ab33e7daadb5b7a729a923b6cafaa04.JPG",
        "mobile": "Ne",
        "attribute_type": null,
        "region": 1
    },
    {
        "id": 1025,
        "nazev": "Hvězdárna a planetárium Brno",
        "lat": 49.20416,
        "lng": 16.583882,
        "html": "AED umístěn na recepci\r\n\r\nTyp: PHILIPS",
        "address": "Kraví hora 522/2, 616 00 Brno-střed-Veveří, Česko",
        "image": "https://intra.zachranka.app/files/c90c38de85c6153aad1c8fc3539dfd5e.JPG",
        "mobile": "Ne",
        "attribute_type": null,
        "region": 1
    },
    {
        "id": 1026,
        "nazev": "Hlavní nádraží Brno",
        "lat": 49.19106,
        "lng": 16.613088,
        "html": "AED umístěn v pokladně ČD kurýr\r\n\r\nTyp: PHILIPS\r\n\r\nNONSTOP",
        "address": "Nádražní 1, 602 00 Brno-střed, Česko",
        "image": "https://intra.zachranka.app/files/2d128c72fea8604ef9b09b3cb3951efb.JPG",
        "mobile": "Ne",
        "attribute_type": null,
        "region": 1
    },
    {
        "id": 1027,
        "nazev": "Aquapark Kohoutovice",
        "lat": 49.192628,
        "lng": 16.541833,
        "html": "AED umístěn v místnosti plavčíků\r\n\r\nTyp: PHILIPS",
        "address": "Chalabalova 575/2, Brno-Kohoutovice, 623 00 Brno, Česko",
        "image": "https://intra.zachranka.app/files/f3afc85a3a11c923eb62a9b64b18174a.JPG",
        "mobile": "Ne",
        "attribute_type": null,
        "region": 1
    },
    {
        "id": 1028,
        "nazev": "Zelný trh",
        "lat": 49.192432,
        "lng": 16.608127,
        "html": "AED umístěn na domě vlevo od vstupu\r\n\r\ntyp: PHILIPS HeartStart FRx\r\n\r\nNONSTOP",
        "address": "Zelný trh 331/13, 602 00 Brno-střed-Brno-město, Česko",
        "image": "https://intra.zachranka.app/files/637e847318ac64316d28fc3c41f7450c.JPG",
        "mobile": "Ne",
        "attribute_type": null,
        "region": 1
    },
    {
        "id": 1029,
        "nazev": "ÚAN Zvonařka",
        "lat": 49.186176,
        "lng": 16.617487,
        "html": "AED umístěn v čekárně pro cestující na Ústředním autobusovém nádraží Brno\r\n\r\nTyp: PHILIPS",
        "address": "Unnamed Road 602 00, 602 00 Brno-střed, Česko",
        "image": "https://intra.zachranka.app/files/ccd62572a0da24723dbb5c12b8d7b58e.JPG",
        "mobile": "Ne",
        "attribute_type": null,
        "region": 1
    },
    {
        "id": 1302,
        "nazev": "OC Olympia Brno",
        "lat": 49.138128,
        "lng": 16.633023,
        "html": "AED umístěn v místnosti ostrahy, 1. patro u Cinema City, konec chodby mezi dětským koutkem a kavárnou\r\n\r\nTyp: LIFEPAK",
        "address": "U Dálnice 777, 664 42 Modřice, Česko",
        "image": "https://intra.zachranka.app/files/3b9dc350897f7cabac92e63dac5f6c3b.JPG",
        "mobile": "Ne",
        "attribute_type": null,
        "region": 1
    },
    {
        "id": 1303,
        "nazev": "Galerie Vaňkovka",
        "lat": 49.188322,
        "lng": 16.614826,
        "html": "AED umístěn u pultu informací v přízemí, uprostřed galerie u fontány\r\n7:00 - 22:00\r\n\r\ntyp: SAVER ONE (SERIES-SN)",
        "address": "Ve Vaňkovce 462/1, 602 00 Brno-Brno-střed, Česko",
        "image": "https://intra.zachranka.app/files/2019/07/08cde6bbdb29bda0f490c47b94918c76.jpg",
        "mobile": "Ne",
        "attribute_type": null,
        "region": 1
    },
    {
        "id": 1304,
        "nazev": "Koupaliště Kraví hora",
        "lat": 49.201574,
        "lng": 16.585407,
        "html": "AED umístěn v místnosti plavčíků (k dispozici jenom během provozu bazénu)\r\n\r\ntyp: Lifepak 500",
        "address": "Údolní 76, 602 00 Brno-střed, Česko",
        "image": "https://intra.zachranka.app/files/3d6b4aea1e8760d8d372d06e91b92a2b.JPG",
        "mobile": "Ne",
        "attribute_type": null,
        "region": 1
    },
    {
        "id": 1305,
        "nazev": "Letiště Brno-Tuřany",
        "lat": 49.152231,
        "lng": 16.693351,
        "html": "AED umístěn v místnosti č. 20 u hasičů\r\n\r\nTyp: LIFEPAK 500",
        "address": "Letiště Brno-Tuřany, Letiště Brno-Tuřany 904/1, 627 00 Brno, Česko",
        "image": "https://intra.zachranka.app/files/d5521b1421a40225780291897d4092fb.jpg",
        "mobile": "Ne",
        "attribute_type": null,
        "region": 1
    },
    {
        "id": 1810,
        "nazev": "Nejvyšší soud Brno",
        "lat": 49.205267,
        "lng": 16.602143,
        "html": "AED umístěn na vrátnici\r\n\r\nTyp: PHILIPS",
        "address": "Burešova 571/20, 602 00 Brno-střed-Veveří, Česko",
        "image": "https://intra.zachranka.app/files/776d0443590c06505c37d948e4bb7237.JPG",
        "mobile": "Ne",
        "attribute_type": null,
        "region": 1
    },
    {
        "id": 1811,
        "nazev": "VUT FEKT Technická 10",
        "lat": 49.226027,
        "lng": 16.575198,
        "html": "AED umístěn na vrátnici Fakulty elektrotechniky a komunikačních technologií VUT v Brně\r\n\r\nTyp: Zoll",
        "address": "Technická 10, 616 00 Brno-Královo Pole, Česko",
        "image": "https://intra.zachranka.app/files/19d4475e92e96d759ebe40cd40fd182d.JPG",
        "mobile": "Ne",
        "attribute_type": null,
        "region": 1
    },
    {
        "id": 1812,
        "nazev": "Fakulta Sportovních studií MU",
        "lat": 49.177103,
        "lng": 16.572876,
        "html": "AED umístěn na recepci\r\n\r\nTyp: LIFEPAK\r\n\r\nNONSTOP",
        "address": "Kamenice 5, 625 00 Brno-Bohunice, Česko",
        "image": "https://intra.zachranka.app/files/c26a5397ba1b3cf1aa691191635d420f.JPG",
        "mobile": "Ne",
        "attribute_type": null,
        "region": 1
    },
    {
        "id": 1813,
        "nazev": "Obecní úřad Pavlov ",
        "lat": 48.874698,
        "lng": 16.671288,
        "html": "AED umístěn na stěně Obecního úřadu\r\n\r\nTyp: PHILIPS ",
        "address": "Na Návsi 88, 692 01 Pavlov, Česko",
        "image": "https://intra.zachranka.app/files/c99a4a43029461b835b272f37c81cdc7.jpg",
        "mobile": "Ne",
        "attribute_type": null,
        "region": 1
    },
    {
        "id": 1814,
        "nazev": "Magistrát Brno, Kounicova 67",
        "lat": 49.209338,
        "lng": 16.59376,
        "html": "AED umístěn na vrátnici Magistrátu města Brna\r\n\r\nTyp: LIFEPAK",
        "address": "Kounicova 949/67, 602 00 Brno-střed, Česko",
        "image": "https://intra.zachranka.app/files/f2bfc61546f7e6719775576339bd6fce.jpg",
        "mobile": "Ne",
        "attribute_type": null,
        "region": 1
    },
    {
        "id": 1815,
        "nazev": "Magistrát Brno, Koliště 19",
        "lat": 49.199464,
        "lng": 16.6118,
        "html": "AED umístěn na vrátnici Magistrátu města Brno - odbor sociální péče\r\n\r\nTyp: LIFEPAK",
        "address": "Koliště 839/19, 602 00 Brno-střed-Zábrdovice, Česko",
        "image": "https://intra.zachranka.app/files/bfa14f9d9221c83c011dacd319c93d1a.png",
        "mobile": "Ne",
        "attribute_type": null,
        "region": 1
    },
    {
        "id": 1816,
        "nazev": "Magistrát Brno, Malinovského nám. 3",
        "lat": 49.195413,
        "lng": 16.615489,
        "html": "AED umístěn na vrátnici Magistrátu města Brna\r\n\r\nTyp: LIFEPAK",
        "address": "Malinovského nám. 624/3, 602 00 Brno-střed-Brno-město, Česko",
        "image": "https://intra.zachranka.app/files/03736dcd8b7f237c11c8ea3c38925238.JPG",
        "mobile": "Ne",
        "attribute_type": null,
        "region": 1
    },
    {
        "id": 1817,
        "nazev": "Magistrát Brno, Dominikánské nám. 1",
        "lat": 49.193932,
        "lng": 16.606152,
        "html": "AED umístěn na vrátnici Magistrátu města Brna\r\n\r\nTyp: LIFEPAK",
        "address": "Dominikánské nám. 196/1, 602 00 Brno-střed-Brno-město, Česko",
        "image": "https://intra.zachranka.app/files/1313b54b06a7975870d9b2c2624c398f.JPG",
        "mobile": "Ne",
        "attribute_type": null,
        "region": 1
    },
    {
        "id": 1818,
        "nazev": "Výcvikové středisko HZS Brno",
        "lat": 49.200477,
        "lng": 16.686374,
        "html": "AED umístěn na vrátnici\r\n\r\nTyp: Zoll",
        "address": "Trnkova 85, 628 00 Brno-Líšeň, Česko",
        "image": "https://intra.zachranka.app/files/9aa818f7a65790a06f1c43d7148b4083.JPG",
        "mobile": "Ne",
        "attribute_type": null,
        "region": 1
    },
    {
        "id": 1913,
        "nazev": "Gynekologická ambulance Chlumec nad Cidlinou",
        "lat": 50.162969,
        "lng": 15.457027,
        "html": "AED umístěn přímo v ordinaci lékaře (u vlakového nádraží)\r\n\r\ntyp: Lifepack CR plus",
        "address": "Nádražní 783, 503 51 Chlumec nad Cidlinou, Česko",
        "image": "https://intra.zachranka.app/files/2019/09/cabfea1ee0fee79b40946513d6ed0533.jpg",
        "mobile": "Ne",
        "attribute_type": null,
        "region": 7
    },
    {
        "id": 1914,
        "nazev": "Domov důchodců Albrechtice nad Orlicí",
        "lat": 50.14129,
        "lng": 16.06309,
        "html": "AED umístěn v hlavní budově, 1. patro, na chodbě na zdi\r\n\r\ntyp: PRIMEDIC HeartSave, typ M250",
        "address": "1. máje 104, 517 22 Albrechtice nad Orlicí, Česko",
        "image": "https://intra.zachranka.app/files/2019/07/c70ccfcfe368394ba1530fe2742e8966.jpg",
        "mobile": "Ne",
        "attribute_type": null,
        "region": 7
    },
    {
        "id": 1916,
        "nazev": "Zdravotní středisko Červený Kostelec",
        "lat": 50.474185,
        "lng": 16.094435,
        "html": "AED umístěn ve skříňce na zdi, chodba 1. patro\r\n\r\ntyp: ZOLL\r\n\r\n- dostupné dle otvírací doby střediska (8:00-16:00)",
        "address": "Manželů Burdychových 325, 549 41 Červený Kostelec, Česko",
        "image": "https://intra.zachranka.app/files/2019/07/dfe69ea6d03967c9f620a4b2802a333f.jpeg",
        "mobile": "Ne",
        "attribute_type": null,
        "region": 7
    },
    {
        "id": 1917,
        "nazev": "Koupaliště Flošna Hradec Králové",
        "lat": 50.205207,
        "lng": 15.842268,
        "html": "AED umístěn u plavčíka",
        "address": "Malšovická 779/2, Malšovice, 500 09 Hradec Králové, Česko",
        "image": "https://intra.zachranka.app/files/6bc00c5b0c30fe9ac3d28a8d2759589b.jpg",
        "mobile": "Ne",
        "attribute_type": null,
        "region": 7
    },
    {
        "id": 1918,
        "nazev": "Plavecký bazén 50m Hradec Králové",
        "lat": 50.214385,
        "lng": 15.828849,
        "html": "AED umístěn u plavčíka",
        "address": "Eliščino nábř. 842/3, 500 03 Hradec Králové, Česko",
        "image": "https://intra.zachranka.app/files/2019/07/58cadf45b72a857c44c76805778b3171.jpg",
        "mobile": "Ne",
        "attribute_type": null,
        "region": 7
    },
    {
        "id": 1919,
        "nazev": "Městské lázně - Aquacentrum Hradec Králové",
        "lat": 50.2141667,
        "lng": 15.8286111,
        "html": "AED umístěn u plavčíka",
        "address": "Eliščino nábřeží 842/3, Hradec Králové",
        "image": "https://intra.zachranka.app/files/2019/07/78a9c63241eba46336e702cf3e33f949.jpg",
        "mobile": "Ne",
        "attribute_type": null,
        "region": 7
    },
    {
        "id": 1920,
        "nazev": "Sportovní hala ASVAJ Jaroměř",
        "lat": 50.349696,
        "lng": 15.918379,
        "html": "AED umístěn před recepcí hned u vchodu (celoročně) Areál sportovních a volnočasových aktivit\r\n\r\ntyp: LIFEPACK CR Plus",
        "address": "Ot. Španiela 817, 551 01 Jaroměř, Česko",
        "image": "https://intra.zachranka.app/files/2019/07/93c56ee2f52fabc854e10c0e9779e0cf.jpg",
        "mobile": "Ne",
        "attribute_type": null,
        "region": 7
    },
    {
        "id": 1921,
        "nazev": "Plavecký areál Jaroměř",
        "lat": 50.351943,
        "lng": 15.91769,
        "html": "AED umístěn ve vestibulu u pokladny (květen-srpen) \r\n\r\ntyp: LIFEPACK CR Plus",
        "address": "Karla Lánského 186, Pražské Předměstí, 551 01 Jaroměř, Česko",
        "image": "https://intra.zachranka.app/files/2019/07/9d2ec2690ed7a76c1131e4df251e8622.jpg",
        "mobile": "Ne",
        "attribute_type": null,
        "region": 7
    },
    {
        "id": 1922,
        "nazev": "Plavecký bazén Rychnov nad Kněžnou",
        "lat": 50.164815,
        "lng": 16.285119,
        "html": "AED umístěn u plavčíka (velká bazénová hala)\r\n\r\ntyp: LifePoint",
        "address": "Javornická 1720, 516 01 Rychnov nad Kněžnou, Česko",
        "image": "https://intra.zachranka.app/files/2019/07/39ff7c6ce18f05a59834134841a0bf66.jpg",
        "mobile": "Ne",
        "attribute_type": null,
        "region": 7
    },
    {
        "id": 1923,
        "nazev": "Zimní stadion Dvůr Králové nad Labem",
        "lat": 50.431564,
        "lng": 15.810788,
        "html": "AED umístěn u obsluhy stadionu\r\n\r\ntyp: PHILIPS HeartStart",
        "address": "nábř. J. Wolkera 137, 544 01 Dvůr Králové nad Labem, Česko",
        "image": "https://intra.zachranka.app/files/2019/07/b75e407f3d97a4254bdfd52b2dd991f6.jpg",
        "mobile": "Ne",
        "attribute_type": null,
        "region": 7
    },
    {
        "id": 1924,
        "nazev": "Zimní stadion Vrchlabí",
        "lat": 50.623621,
        "lng": 15.611034,
        "html": "AED umístěn v ošetřovně – přízemí areálu zimního stadionu\r\n\r\ntyp: ZOOL AED Plus",
        "address": "Fügnerova 1288, 543 01 Vrchlabí, Česko",
        "image": "https://intra.zachranka.app/files/2019/07/573cfb4d45ac4bb57f6fe13dee2072d8.jpg",
        "mobile": "Ne",
        "attribute_type": null,
        "region": 7
    },
    {
        "id": 1925,
        "nazev": "Zimní stadion Nový Bydžov",
        "lat": 50.241356,
        "lng": 15.498136,
        "html": "AED umístěn ve skříni ve strojovně u ledařů (září-březen)\r\n\r\ntyp: LifePoint Pro AED",
        "address": "Dukelská tř. 973, 504 01 Nový Bydžov, Česko",
        "image": "https://intra.zachranka.app/files/2019/07/d4f49d83532362d5ecbbb17bb181d8ce.jpg",
        "mobile": "Ne",
        "attribute_type": null,
        "region": 7
    },
    {
        "id": 1926,
        "nazev": "Zimní stadion Hradec Králové",
        "lat": 50.206613,
        "lng": 15.829227,
        "html": "AED umístěn v ošetřovně vedle vrátnice, hala I.",
        "address": "Komenského 1214/2, 500 03 Hradec Králové, Česko",
        "image": "https://intra.zachranka.app/files/2019/07/7e7a754107198af1b528a23d69e40d71.jpg",
        "mobile": "Ne",
        "attribute_type": null,
        "region": 7
    },
    {
        "id": 1928,
        "nazev": "Zimní stadion Trutnov ",
        "lat": 50.563811,
        "lng": 15.924018,
        "html": "AED umístěn u ledařů ve strojovně\r\n\r\ntyp: MEDUCORE Easy",
        "address": "Na Lukách, 541 01 Trutnov, Česko",
        "image": "https://intra.zachranka.app/files/2019/07/a19ce607bc9621d704a1555722973f5e.jpeg",
        "mobile": "Ne",
        "attribute_type": null,
        "region": 7
    },
    {
        "id": 1929,
        "nazev": "firma TELEFLEX, Hradec Králové",
        "lat": 50.202721,
        "lng": 15.777431,
        "html": "AED umístěn na vrátnici (Býv. fa. Arrow)",
        "address": "Pražská tř. 209/182, Plačice, 500 04 Hradec Králové, Česko",
        "image": "https://intra.zachranka.app/files/2019/07/339cf821f0ea73959e1c74d9f15957f9.jpg",
        "mobile": "Ne",
        "attribute_type": null,
        "region": 7
    },
    {
        "id": 1930,
        "nazev": "Městská knihovna Nové Město nad Metují",
        "lat": 50.350683,
        "lng": 16.150249,
        "html": "AED umístěn za vstupními dveřmi vlevo (vyzvedne IZS nebo Městská policie)\r\n\r\ntyp: LIFEPAK CR Plus\r\n",
        "address": "Komenského 30, 549 01 Nové Město nad Metují, Česko",
        "image": "https://intra.zachranka.app/files/2019/07/5f26659e0910aa373e32ee3861e1963b.jpeg",
        "mobile": "Ne",
        "attribute_type": null,
        "region": 7
    },
    {
        "id": 1931,
        "nazev": "Amcor Flexibles, Nový Bydžov",
        "lat": 50.220218,
        "lng": 15.478991,
        "html": "AED umístěn u mistra na hale, na stolku u lůžka\r\n\r\ntyp: Schiller Medical\r\n\r\nNONSTOP",
        "address": "Průmyslová 200, Zábědov, 504 01 Nový Bydžov, Česko",
        "image": "https://intra.zachranka.app/files/2019/07/7a1d4d119f1f2b62d9e4a6a8e5e2f3a7.jpeg",
        "mobile": "Ne",
        "attribute_type": null,
        "region": 7
    },
    {
        "id": 1932,
        "nazev": "Letiště HK, OK - Ambulance s.r.o.",
        "lat": 50.2243889,
        "lng": 15.843889,
        "html": "AED umístěn u hasičů, v zásahovém vozidle\r\n\r\nSpravuje OK - Ambulance s.r.o. (pouze pro účely letiště)",
        "address": "Piletická 61/36A, Piletice, 500 03 Hradec Králové, Česko",
        "image": "https://intra.zachranka.app/files/2019/07/5bb3f106c31578812c2185cb9b1f8fcf.jpg",
        "mobile": "Ano",
        "attribute_type": "60",
        "region": 7
    },
    {
        "id": 1933,
        "nazev": "Deva Nutrition a.s.",
        "lat": 50.354134,
        "lng": 16.138633,
        "html": "AED umístěn u vchodu do výrobní haly, vyzvedne recepční\r\n\r\ntyp: LIFEPAK CR Plus",
        "address": "Gen. Klapálka 519, 549 01 Nové Město nad Metují, Česko",
        "image": "https://intra.zachranka.app/files/2019/07/6fd76756ab34a697a7e1897dc414541f.jpeg",
        "mobile": "Ne",
        "attribute_type": null,
        "region": 7
    },
    {
        "id": 1934,
        "nazev": "HORNBACH Hradec Králové",
        "lat": 50.182084,
        "lng": 15.801783,
        "html": "AED umístěn v zákaznickém servisu, východ do venkovních stavebnin\r\n\r\ntyp: AED G3",
        "address": "Rovná 1697, Pražské Předměstí, 500 02 Hradec Králové, Česko",
        "image": "https://intra.zachranka.app/files/2019/07/012ec2af22420e630c2ae8698a4e80b8.jpg",
        "mobile": "Ne",
        "attribute_type": null,
        "region": 7
    },
    {
        "id": 1984,
        "nazev": "MUDr. Miroslav Blanař",
        "lat": 49.977446,
        "lng": 16.394214,
        "html": "AED umístěn v ordinaci praktického lékaře pro dospělé\r\n\r\n- dle ordinace (v případě potřeby je zařízení přineseno a obsluhováno zdravotnickým personálem ordinace)\r\n\r\ntyp: PHILIPS HeartStart",
        "address": "Lochmanova 904, 562 01 Ústí nad Orlicí, Česko",
        "image": "https://intra.zachranka.app/files/322e8b353b158f937a4323512080b068.png",
        "mobile": "Ne",
        "attribute_type": null,
        "region": 6
    },
    {
        "id": 1986,
        "nazev": "SCHOTT CR, s.r.o.",
        "lat": 49.911533,
        "lng": 16.59782,
        "html": "AED umístěn na recepci \r\n\r\ntyp: PHILIPS HeartStart\r\n\r\nNONSTOP",
        "address": "Dvořákova 997, Žichlínské Předměstí, 563 01 Lanškroun, Česko",
        "image": "https://intra.zachranka.app/files/cc981624d0cbde81244783ef837deae7.png",
        "mobile": "Ne",
        "attribute_type": null,
        "region": 6
    },
    {
        "id": 1987,
        "nazev": "Domov pro seniory Česká Třebová",
        "lat": 49.900601,
        "lng": 16.457169,
        "html": "AED umístěn v pracovně sester v 1. poschodí v budově \r\nA (nová budova).\r\n\r\ntyp: LIFEPAK 500\r\n\r\nNONSTOP",
        "address": "Bezděkov 918, 560 02 Česká Třebová, Česko",
        "image": "https://intra.zachranka.app/files/753156079b67e251731bf6fc60264e40.png",
        "mobile": "Ne",
        "attribute_type": null,
        "region": 6
    },
    {
        "id": 1988,
        "nazev": "Globus Hypermarket Pardubice",
        "lat": 50.058284,
        "lng": 15.75183,
        "html": "AED umístěn na informacích hypermarketu Globus / hlavní vchod pro zákazníky\r\n\r\npo-ne 8:00-21:00\r\n\r\ntyp: Philips HeartStart FR x",
        "address": "Poděbradská 293, 530 09 Pardubice-Pardubice VII, Česko",
        "image": "https://intra.zachranka.app/files/2019/07/169931b226f3399f2562ea92e032eea1.jpg",
        "mobile": "Ne",
        "attribute_type": null,
        "region": 6
    },
    {
        "id": 1989,
        "nazev": "Plavecký bazén Chrudim",
        "lat": 49.94081,
        "lng": 15.802583,
        "html": "Sportovní areály města Chrudim - krytý bazén\r\nZařízení je v případě potřeby přineseno a obsluhováno plavčíkem.\r\nDostupný dle otvírací doby.",
        "address": "V Průhonech 503, Chrudim III, 537 03 Chrudim, Česko",
        "image": "https://intra.zachranka.app/files/a802df630bc5ae3f6a8c449542d0a80e.png",
        "mobile": "Ne",
        "attribute_type": null,
        "region": 6
    },
    {
        "id": 1990,
        "nazev": "Vodní záchranná služba Seč",
        "lat": 49.842943534414,
        "lng": 15.647672871128,
        "html": "AED umístěn na Stanici první pomoci v Autokempu Pláž (červenec – srpen) a ve služebním vozidle.\r\n\r\nZařízení je v případě potřeby přineseno a obsluhováno členem vodní záchranné služby Seč.\r\n\r\ntyp: PHILIPS Heartstart frx",
        "address": "Autokemp Pláž, Chrudim",
        "image": "https://intra.zachranka.app/files/9a0cc3c621dc42c98ba2f3adee01a942.png",
        "mobile": "Ano",
        "attribute_type": "60",
        "region": 6
    },
    {
        "id": 1991,
        "nazev": "FIBERTEX, a. s., Pražská 1061/42",
        "lat": 49.764146,
        "lng": 16.45479,
        "html": "AED umístěn na recepci \r\n\r\ntyp: Philips HeartStart FRx\r\n\r\nNONSTOP",
        "address": "Pražská 1061/42, Předměstí, 568 02 Svitavy, Česko",
        "image": "https://intra.zachranka.app/files/9e38f1b1600555d22cb650ba4ac80a6a.png",
        "mobile": "Ne",
        "attribute_type": null,
        "region": 6
    },
    {
        "id": 1992,
        "nazev": "FIBERTEX, a. s., Průmyslová 2179/20",
        "lat": 49.761105,
        "lng": 16.48541,
        "html": "AED umístěn na recepci \r\n\r\ntyp: Philips HeartStart FRx\r\n\r\nNONSTOP",
        "address": "Průmyslová 2179/20, Předměstí, 568 02 Svitavy, Česko",
        "image": "https://intra.zachranka.app/files/a21726c659ee22597c5d0938cc1379ef.png",
        "mobile": "Ne",
        "attribute_type": null,
        "region": 6
    },
    {
        "id": 1993,
        "nazev": "Plavecký bazén Pardubice",
        "lat": 50.033785,
        "lng": 15.782502,
        "html": "AED umístěn na vrátnici\r\n\r\nZařízení je v případě potřeby přineseno a obsluhováno plavčíkem.\r\n\r\nNONSTOP",
        "address": "Jiráskova 2664, 530 02 Pardubice I, Česko",
        "image": "https://intra.zachranka.app/files/8d904daa3aa8353e59f3ba9c8e38ce8f.png",
        "mobile": "Ne",
        "attribute_type": null,
        "region": 6
    },
    {
        "id": 1994,
        "nazev": "ENTERIA ARENA ",
        "lat": 50.040269,
        "lng": 15.769494,
        "html": "AED umístěn na vrátnici\r\n\r\ntyp: POWER HEART AED G3",
        "address": "Sukova tř. 1735, 530 02 Pardubice I, Česko",
        "image": "https://intra.zachranka.app/files/f7be25e0b7c50ec1b6b7ee2e78f2e957.png",
        "mobile": "Ne",
        "attribute_type": null,
        "region": 6
    },
    {
        "id": 1995,
        "nazev": "Východočeské divadlo Pardubice",
        "lat": 50.036834,
        "lng": 15.777723,
        "html": "AED umístěn na vrátnici\r\n\r\nDostupné v závislosti na čase představení a nácviku.\r\n\r\ntyp: PowerHeart AED G3 Automatic",
        "address": "nám. Republiky 50, 530 02 Pardubice I-Zelené Předměstí, Česko",
        "image": "https://intra.zachranka.app/files/206ffc1d81d433004c7b8915f6f6b557.png",
        "mobile": "Ne",
        "attribute_type": null,
        "region": 6
    },
    {
        "id": 1996,
        "nazev": "Střední zdravotnická škola Pardubice",
        "lat": 50.022342,
        "lng": 15.805324,
        "html": "AED umístěn na vrátnici (pouze ve všední dny)\r\n\r\ntyp: LIFEPAK",
        "address": "Průmyslová 395, 530 03 Pardubice IV-Pardubičky, Česko",
        "image": "https://intra.zachranka.app/files/c9e624d127a8b64d49f21e8ca8e3921f.png",
        "mobile": "Ne",
        "attribute_type": null,
        "region": 6
    },
    {
        "id": 1997,
        "nazev": "Faurecia Interiors s.r.o., Pardubice",
        "lat": 50.020253,
        "lng": 15.807977,
        "html": "AED umístěn vedle údržby na hale \"A\" asi 50 metrů východně od recepce\r\n\r\ntyp: POWERHEART AED G3",
        "address": "Průmyslová 387, 530 03 Pardubice IV-Pardubičky, Česko",
        "image": "https://intra.zachranka.app/files/2019/07/ff8b1b15e94f0400b1911466ae59af38.png",
        "mobile": "Ne",
        "attribute_type": null,
        "region": 6
    },
    {
        "id": 1998,
        "nazev": "Letiště Pardubice",
        "lat": 50.019773,
        "lng": 15.734295,
        "html": "AED umístěn v odletové hale na informacích EAST BOHEMIAN AIRPORT a.s. - Civilní letiště\r\n\r\ntyp: PHILIPS Heartstart ",
        "address": "Pražská 179, 530 06 Pardubice-Pardubice VI, Česko",
        "image": "https://intra.zachranka.app/files/c16b93bb5a678a3591aa5308d067400a.png",
        "mobile": "Ne",
        "attribute_type": null,
        "region": 6
    },
    {
        "id": 1999,
        "nazev": "Městská policie Pardubice",
        "lat": 50.037464,
        "lng": 15.771238,
        "html": "1. AED umístěn v budově MP v přízemí naproti recepci\r\ntyp: BeneHeart D1 Public\r\n\r\n2. AED umístěn ve služebním vozidle\r\ntyp: Powerheart AED G3 Automatic",
        "address": "Pernerova 443, 530 02 Pardubice I-Zelené Předměstí, Česko",
        "image": "https://intra.zachranka.app/files/f1c93400fe38e563de3c78be0f2c98ad.png",
        "mobile": "Ano",
        "attribute_type": "60",
        "region": 6
    },
    {
        "id": 2000,
        "nazev": "Městská policie Přelouč",
        "lat": 50.038713,
        "lng": 15.561029,
        "html": "AED umístěn ve služebním vozidle \r\n\r\ntyp: Philips Heartstart\r\n\r\nNONSTOP",
        "address": "Československé armády 1665, 535 01 Přelouč, Česko",
        "image": "https://intra.zachranka.app/files/2019/07/4e2ab3ae85695c5eb95b634d7e98f6be.png",
        "mobile": "Ano",
        "attribute_type": "60",
        "region": 6
    },
    {
        "id": 2001,
        "nazev": "MUDr. Bohumil Skála, Lanškroun (Valy 216 s.r.o.)",
        "lat": 49.913753,
        "lng": 16.612167,
        "html": "AED umístěn v ordinaci MUDr. Skály, v místnosti u sestry \r\n\r\ntyp: Lifepak 500\r\n\r\nV případě potřeby je zařízení přineseno a obsluhováno zdravotnickým personálem ordinace.",
        "address": "Na Valech 216, Ostrovské Předměstí, 563 01 Lanškroun, Česko",
        "image": "https://intra.zachranka.app/files/2019/07/77b82eb14f6671fe7c4e949fce324540.jpg",
        "mobile": "Ne",
        "attribute_type": null,
        "region": 6
    },
    {
        "id": 2002,
        "nazev": "Lékárna Holice",
        "lat": 50.067216,
        "lng": 15.987589,
        "html": "AED umístěn v zázemí Lékárny Na Poliklinice Holice (neveřejný)\r\n\r\ntyp: PHILIPS Heartstart\r\n\r\nPondělí - Pátek: 7:00 - 17:30\r\nSobota: 7:30 - 11:30",
        "address": "nám. T. G. Masaryka 29, 534 01 Holice, Česko",
        "image": "https://intra.zachranka.app/files/3f4c9ae858e0232132a0c0b24cb19117.png",
        "mobile": "Ne",
        "attribute_type": null,
        "region": 6
    },
    {
        "id": 2003,
        "nazev": "Oblastní spolek ČČK Ústí nad Orlicí",
        "lat": 49.969552,
        "lng": 16.400085,
        "html": "AED umístěn v zasedací místnosti Oblastního spolku Českého červeného kříže Ústí nad Orlicí\r\n\r\ntyp: PowerHeart AED G3 automatic\r\n\r\npo-pá 7:00-15:30 hod.\r\n\r\nOd 14.8.2019 do cca července 2020 bude budova uzavřena z důvodu rekonstrukce!",
        "address": "Kopeckého 840, 562 01 Ústí nad Orlicí, Česko",
        "image": "https://intra.zachranka.app/files/48fc0a6cc60c371a36831cb3b02ac889.png",
        "mobile": "Ne",
        "attribute_type": null,
        "region": 6
    },
    {
        "id": 2062,
        "nazev": "Hasiči Plzeň - Bolevec (JSDH)",
        "lat": 49.777293,
        "lng": 13.375382,
        "html": "AED umístěn ve služebním vozidle (na cisterně) Jednotky sboru dobrovolných hasičů Plzeň - Bolevec\r\n\r\ntyp: Lifepak\r\n\r\nDostupný jen v době, když je někdo přítomný na hasičárně.",
        "address": "Bolevecká náves 15/20, 323 00 Plzeň 1, Česko",
        "image": "https://intra.zachranka.app/files/2019/07/99f155c4896286a228bff7ee469a3838.jpg",
        "mobile": "Ano",
        "attribute_type": "60",
        "region": 13
    },
    {
        "id": 2064,
        "nazev": "Hasiči Bílá Hora, Plzeň (JSDH)",
        "lat": 49.771769,
        "lng": 13.408032,
        "html": "AED umístěn na vozidle CAS 20 Tatra Terrno Jednotky sboru dobrovolných hasičů Bílá Hora\r\n\r\ntyp: POWER HEART AED G3",
        "address": "Nad Priorem 2138/12A, 301 00 Plzeň 1-Bolevec, Česko",
        "image": "https://intra.zachranka.app/files/2019/07/78431cdcb1df30ca6ecb1f6f6630a16c.jpg",
        "mobile": "Ne",
        "attribute_type": null,
        "region": 13
    },
    {
        "id": 2067,
        "nazev": "Poliklinika Francouzská tř., Plzeň",
        "lat": 49.73079,
        "lng": 13.400805,
        "html": "AED umístěn na pracovišti protialkoholní záchytné stanice Městské polikliniky Plzeň, spol. s r.o. (v suterénu budovy)\r\n\r\ntyp: AED HeartOn A10\r\n\r\nNONSTOP",
        "address": "Francouzská tř. 2080/4, 326 00 Plzeň 2-Slovany-Východní Předměstí, Česko",
        "image": "https://intra.zachranka.app/files/2019/06/81406bdb88e16e94529dd86d09582a7c.jpg",
        "mobile": "Ne",
        "attribute_type": null,
        "region": 13
    },
    {
        "id": 2068,
        "nazev": "Horská služba Špičák, Šumava",
        "lat": 49.165221,
        "lng": 13.222241,
        "html": "Horská služba, oblast Šumava, Železná Ruda, Špičák\r\n\r\nAED na stanici - typ: Zoll AED Plus\r\nAED ve vozidlech - typ: LifePak 1000\r\n\r\n- číslo Horské služby: 1210",
        "address": "Špičák 55, 340 04 Železná Ruda, Česko",
        "image": "https://intra.zachranka.app/files/2019/07/ee75b5208812bf1485f8f5b2dfef951e.jpg",
        "mobile": "Ano",
        "attribute_type": "60",
        "region": 13
    },
    {
        "id": 2069,
        "nazev": "Horská služba Zadov, Šumava",
        "lat": 49.071404,
        "lng": 13.627119,
        "html": "Horská služba, oblast Šumava, Zadov/Kvilda\r\n\r\nAED na stanici - typ: LifePak 1000\r\nAED ve vozidlech - typ: LifePak 1000\r\n\r\n- číslo Horské služby: 1210",
        "address": "Zadov 384 73, 384 73 Stachy, Česko",
        "image": "https://intra.zachranka.app/files/1ad17a5b3c940a92e8d0fa53617f949b.jpg",
        "mobile": "Ano",
        "attribute_type": "60",
        "region": 13
    },
    {
        "id": 2070,
        "nazev": "Horská služba Kramolín, Šumava",
        "lat": 48.652838,
        "lng": 14.231364,
        "html": "Horská služba, oblast Šumava, Kramolín\r\n\r\nAED na stanici - typ: LifePak 500\r\nAED ve vozidlech - typ: LifePak 1000\r\n\r\n- číslo Horské služby: 1210",
        "address": "Kramolín č. 53 382 78 Lipno nad Vltavou",
        "image": "https://intra.zachranka.app/files/0698c07a08ec6c43ce4ad0a97f41f8ac.jpg",
        "mobile": "Ano",
        "attribute_type": "60",
        "region": 13
    },
    {
        "id": 2072,
        "nazev": "Poliklinika Doubravka Plzeň",
        "lat": 49.75464,
        "lng": 13.416883,
        "html": "AED umístěn na vrátnici (Zdravotnické zařízení Plzeň - Doubravka s.r.o.)\r\n\r\ntyp: Philips HeartStart FRx",
        "address": "Masarykova 62/1132, 312 00 Plzeň-Plzeň 4, Česko",
        "image": "https://intra.zachranka.app/files/2019/07/16e22797c2baf990f8fe3c7b6cce32c9.jpeg",
        "mobile": "Ne",
        "attribute_type": null,
        "region": 13
    },
    {
        "id": 2073,
        "nazev": "Farní charita Stříbro",
        "lat": 49.758122,
        "lng": 13.003861,
        "html": "AED umístěn ve společenské místnosti\r\n\r\ntyp: PHILIPS HEARTSTART FRX",
        "address": "Gagarinova 1416, 349 01 Stříbro, Česko",
        "image": "https://intra.zachranka.app/files/2019/07/5bdb4638297bd670a0c5cb4aa888faa3.jpg",
        "mobile": "Ne",
        "attribute_type": null,
        "region": 13
    },
    {
        "id": 2074,
        "nazev": "MUDr. Tomáš Böhm",
        "lat": 49.905095,
        "lng": 12.971672,
        "html": "Ordinace praktického lékaře - MUDr. Tomáš Böhm",
        "address": "Fučíkova 249, 349 53 Bezdružice, Česko",
        "image": null,
        "mobile": "Ne",
        "attribute_type": null,
        "region": 13
    },
    {
        "id": 2075,
        "nazev": "Poliklinika Denisovo nábřeží ",
        "lat": 49.745088,
        "lng": 13.383069,
        "html": "AED umístěn přes den na interně, pak se předává prostřednictvím recepce na všeobecnou pohotovost\r\n(EUC Klinika Plzeň s.r.o.)\r\n\r\ntyp: AED G3 automatik",
        "address": "Denisovo nábř. 1000/4, 301 00 Plzeň 3-Východní Předměstí, Česko",
        "image": "https://intra.zachranka.app/files/2019/06/9c035bad69dcab6bf9a2e0b0055b923f.jpeg",
        "mobile": "Ne",
        "attribute_type": null,
        "region": 13
    },
    {
        "id": 2076,
        "nazev": "Domov pro seniory sv. Jiří, Plzeň",
        "lat": 49.751164,
        "lng": 13.423436,
        "html": "AED umístěn blízko vstupní haly, na vozíku za dveřmi\r\n(Městská charita Plzeň, Domov pro seniory, Mohylová ul., Plzeň)\r\n\r\ntyp: ZOLL AED PLUS (společně s EKG a ambuvakem)",
        "address": "Mohylová 1443/92, 312 00 Plzeň 4-Doubravka, Česko",
        "image": "https://intra.zachranka.app/files/2019/07/1c343521483ace8b39ff51b2ca964321.jpeg",
        "mobile": "Ne",
        "attribute_type": null,
        "region": 13
    },
    {
        "id": 2077,
        "nazev": "Domov pro seniory Újezdec u Klatov",
        "lat": 49.357004,
        "lng": 13.330712,
        "html": "AED umístěn v ordinaci DpS \r\n\r\ntyp: POWER HEART AED G3",
        "address": "Újezdec 1, 339 01 Mochtín, Česko",
        "image": "https://intra.zachranka.app/files/2019/07/18d59d69d4b36ce115c9db10803bcfb4.jpg",
        "mobile": "Ne",
        "attribute_type": null,
        "region": 13
    },
    {
        "id": 2078,
        "nazev": "Domov pro seniory Klatovy",
        "lat": 49.400609,
        "lng": 13.276584,
        "html": "AED umístěn na vrátnici (hlavní vchod)\r\n\r\ntyp: POWER HEART AED G3",
        "address": "Podhůrecká 815, Klatovy III, 339 01 Klatovy, Česko",
        "image": "https://intra.zachranka.app/files/2019/07/625fd625462145eaa5753b6fd7692653.jpg",
        "mobile": "Ne",
        "attribute_type": null,
        "region": 13
    },
    {
        "id": 2079,
        "nazev": "Městská policie Plzeň (Velitelství)",
        "lat": 49.748351,
        "lng": 13.379966,
        "html": "AED umístěn na služebně v kanceláři s nepřetržitou službou\r\n\r\ntyp: PHILIPS HeartStart",
        "address": "Perlová 66/3, 301 00 Plzeň 3-Vnitřní Město, Česko",
        "image": "https://intra.zachranka.app/files/2019/07/a14f88387744be96d1913b723d685b7d.jpg",
        "mobile": "Ne",
        "attribute_type": null,
        "region": 13
    },
    {
        "id": 2080,
        "nazev": "Poliklinika v Záluží u Litvínova",
        "lat": 50.553061,
        "lng": 13.618551,
        "html": "AED umístěn v ambulanci interny, 1.patro - MUDr. Tenk (PARACELUS s.r.o.)\r\n\r\ntyp: Defi-N",
        "address": "Záluží 1, 436 70 Litvínov, Česko",
        "image": "https://intra.zachranka.app/files/2019/07/4a53a507a82765fbcd19576907723e3d.jpg",
        "mobile": "Ne",
        "attribute_type": null,
        "region": 11
    },
    {
        "id": 2081,
        "nazev": "Krajský úřad Ústeckého kraje - budova A",
        "lat": 50.661438,
        "lng": 14.03898,
        "html": "AED umístěn ve vstupní hale\r\n\r\ntyp: LIFEPAK 1000",
        "address": "Velká hradební 3118/48, 400 01 Ústí nad Labem-město-Ústí nad Labem-centrum, Česko",
        "image": "https://intra.zachranka.app/files/2019/07/9f9eca9e29b1a8c4202fa67f39ff512b.jpg",
        "mobile": "Ne",
        "attribute_type": null,
        "region": 11
    },
    {
        "id": 2084,
        "nazev": "Aquapark AquaDream Barrandov",
        "lat": 50.026831,
        "lng": 14.368946,
        "html": "AED umístěn v plavčíkárně\r\n\r\ntyp: Lifepak 500",
        "address": "K Barrandovu 1173/8, 152 00 Praha 5-Hlubočepy, Česko",
        "image": "https://intra.zachranka.app/files/2019/07/c611789f432b2eb8f4d503429813e9b6.jpg",
        "mobile": "Ne",
        "attribute_type": null,
        "region": 10
    },
    {
        "id": 2086,
        "nazev": "Centrum Paraple, Praha 10",
        "lat": 50.080777,
        "lng": 14.506701,
        "html": "AED umístěn na chodbě v 1.patře \r\n\r\ntyp: Lifepak",
        "address": "Ovčárská 471/1B, 108 00 Praha 10-Malešice, Česko",
        "image": "https://intra.zachranka.app/files/2019/07/a25c5bceb0e5513296a14de4c3e81b42.jpg",
        "mobile": "Ne",
        "attribute_type": null,
        "region": 10
    },
    {
        "id": 2087,
        "nazev": "Clearstream Operations Prague s.r.o.",
        "lat": 50.096608,
        "lng": 14.464173,
        "html": "Futurama Business Park\r\nBuilding B / PCA",
        "address": "Sokolovská 662/136b, 186 00 Praha 8-Karlín, Česko",
        "image": "https://intra.zachranka.app/files/2019/07/9b6c5734f75cd4c5905dc208fc42ca58.jpg",
        "mobile": "Ne",
        "attribute_type": null,
        "region": 10
    },
    {
        "id": 2088,
        "nazev": "Česká zemědělská univerzita v Praze ",
        "lat": 50.129994,
        "lng": 14.373598,
        "html": "AED umístěn u ostrahy (recepce) v budově rektorátu\r\n\r\ntyp: Philips HeartStart FRx\r\n\r\nNONSTOP",
        "address": "Kamýcká 129, 165 00 Praha-Suchdol, Česko",
        "image": "https://intra.zachranka.app/files/2019/07/5667059604b5a5f5f2dacf632e87a704.jpg",
        "mobile": "Ne",
        "attribute_type": null,
        "region": 10
    },
    {
        "id": 2089,
        "nazev": "Deutsche Börse Group Prague",
        "lat": 50.096608,
        "lng": 14.464173,
        "html": "Futurama Business Park\r\nBuilding B",
        "address": "Sokolovská 662/136b, 186 00 Praha 8-Karlín, Česko",
        "image": "https://intra.zachranka.app/files/2019/07/9b6c5734f75cd4c5905dc208fc42ca58.jpg",
        "mobile": "Ne",
        "attribute_type": null,
        "region": 10
    },
    {
        "id": 2090,
        "nazev": "Domov pro seniory Malešice",
        "lat": 50.087395,
        "lng": 14.505121,
        "html": "Domov důchodců Rektorská ul.",
        "address": "Rektorská 577/5, 108 00 Praha 10-Malešice, Česko",
        "image": "https://intra.zachranka.app/files/2019/07/8a4aace6addda529a8c508ec821612b4.jpg",
        "mobile": "Ne",
        "attribute_type": null,
        "region": 10
    },
    {
        "id": 2091,
        "nazev": "ExxonMobil",
        "lat": 50.078261,
        "lng": 14.461302,
        "html": "ExxonMobil Business Support Center Czechia s.r.o.\r\n\r\nK dispozici 7x AED umístěných po budově plus 1 na recepci. \r\nVeřejně přístupné AED je na recepci v budově Luxembourg Plaza.\r\n\r\ntyp: Philips HeartStart",
        "address": "Vinohradská 2828/151, 130 00 Praha 3-Žižkov, Česko",
        "image": "https://intra.zachranka.app/files/2019/07/2045908c4690a4d5e90168a48c9791b8.png",
        "mobile": "Ne",
        "attribute_type": null,
        "region": 10
    },
    {
        "id": 2092,
        "nazev": "FK Viktoria Žižkov",
        "lat": 50.083911,
        "lng": 14.444595,
        "html": "FK Viktoria Žižkov a.s.",
        "address": "Seifertova 10, 130 00 Praha 3-Žižkov, Česko",
        "image": "https://intra.zachranka.app/files/2019/07/c7a29d4baade411e92876a0389cf517b.jpg",
        "mobile": "Ne",
        "attribute_type": null,
        "region": 10
    },
    {
        "id": 2094,
        "nazev": "Hotel Four Seasons",
        "lat": 50.087773,
        "lng": 14.414333,
        "html": "Four Seasons Hotel Prague\r\n\r\nAED umístěn v místnosti PBX operátora a Security v místě \r\npersonálního vstupu a na 7. patře našeho hotelu.\r\n\r\ntyp: AED LIFEPAK CR Plus",
        "address": "Veleslavínova 1098/2A, 110 00 Praha-Staré Město, Česko",
        "image": "https://intra.zachranka.app/files/2019/07/2f598d1cd82473aea7ed79a9c9c82ba8.jpg",
        "mobile": "Ne",
        "attribute_type": null,
        "region": 10
    },
    {
        "id": 2095,
        "nazev": "Hotel Mandarin Oriental",
        "lat": 50.084556,
        "lng": 14.405616,
        "html": "Mandarin Oriental, Prague",
        "address": "Nebovidská 459/1, 118 00 Praha-Malá Strana, Česko",
        "image": "https://intra.zachranka.app/files/2019/07/2fbf7fdecfa9f182256235f1d931a32c.jpg",
        "mobile": "Ne",
        "attribute_type": null,
        "region": 10
    },
    {
        "id": 2096,
        "nazev": "Park Inn Hotel Prague",
        "lat": 50.067962,
        "lng": 14.417941,
        "html": "AED umístěn na recepci hotelu\r\n\r\ntyp: AED LIFEPAK CR PLUS",
        "address": "Svobodova 1961/1, 128 00 Praha-Nové Město, Česko",
        "image": "https://intra.zachranka.app/files/2019/07/2e37acea9aebf2568a2f571c5a58a212.jpg",
        "mobile": "Ne",
        "attribute_type": null,
        "region": 10
    },
    {
        "id": 2097,
        "nazev": "Hasičský záchranný sbor České televize",
        "lat": 50.048616,
        "lng": 14.428206,
        "html": "2 ks AED jsou součástí výbavy výjezdových vozidel (v RZA a v CAS)\r\n\r\ntyp: ZOLL AED Plus",
        "address": "V Rovinách 1134/127, 140 00 Praha 4-Podolí, Česko",
        "image": "https://intra.zachranka.app/files/2019/07/d30074c2d3e3627e2c56a65000b94ca2.jpg",
        "mobile": "Ano",
        "attribute_type": "60",
        "region": 10
    },
    {
        "id": 2098,
        "nazev": "IKEA Černý Most",
        "lat": 50.104463,
        "lng": 14.586993,
        "html": "AED umístěn u ostrahy",
        "address": "Chlumecká 664/10, 198 00 Praha 14-Černý Most, Česko",
        "image": "https://intra.zachranka.app/files/2019/07/f8a90dcfd615eba0466be1aeb04120af.jpg",
        "mobile": "Ne",
        "attribute_type": null,
        "region": 10
    },
    {
        "id": 2099,
        "nazev": "IKEA Zličín",
        "lat": 50.050994,
        "lng": 14.298277,
        "html": "AED umístěn u ostrahy",
        "address": "Skandinávská 15a/144, 155 00 Praha 13, Česko",
        "image": "https://intra.zachranka.app/files/2019/07/5695f546ea53954e50064e7113a7b1f0.jpg",
        "mobile": "Ne",
        "attribute_type": null,
        "region": 10
    },
    {
        "id": 2100,
        "nazev": "Imumed s.r.o.",
        "lat": 50.092034,
        "lng": 14.434331,
        "html": "IMUMED s.r.o., Alergologie a imunologie\r\n\r\nAED umístěn v ambulanci lékaře - PŘÍSTUPNÝ POUZE V ORDINAČNÍCH HODINÁCH\r\n\r\ntyp: LIFEPAK 500",
        "address": "Mlynářská 1361/4, 110 00 Praha-Nové Město, Česko",
        "image": "https://intra.zachranka.app/files/2019/07/3d493ee095657a5917c63cd79c8aa3c8.jpg",
        "mobile": "Ne",
        "attribute_type": null,
        "region": 10
    },
    {
        "id": 2104,
        "nazev": "OC Arkády Pankrác",
        "lat": 50.051042,
        "lng": 14.439504,
        "html": "Arkády Pankrác - Nákupní a společenské centrum\r\n\r\nAED umístěn na velínu ostrahy\r\n\r\ntyp: HeartSine PAD 500P (+ dětský PAD-PAK)",
        "address": "Na Pankráci 86, 140 00 Praha 4-Nusle, Česko",
        "image": "https://intra.zachranka.app/files/2019/07/e37d192c6c294653b69e6836c7802695.jpg",
        "mobile": "Ne",
        "attribute_type": null,
        "region": 10
    },
    {
        "id": 2105,
        "nazev": "NC Eden Vršovice",
        "lat": 50.067768,
        "lng": 14.468078,
        "html": "Nákupní centrum Eden\r\n\r\nAED umístěn na dispečinku ostrahy (u vjezdových závor z ulice U Slávie, naproti stadionu, parkoviště 1PP).\r\n\r\ntyp: ZOLL AED plus",
        "address": "U Slavie 1527/68b, 100 00 Praha 10-Vršovice, Česko",
        "image": "https://intra.zachranka.app/files/2019/07/36a013e31b67fd26e7f93e78495adcd4.jpg",
        "mobile": "Ne",
        "attribute_type": null,
        "region": 10
    },
    {
        "id": 2106,
        "nazev": "OC Galerie Harfa",
        "lat": 50.103904,
        "lng": 14.490831,
        "html": "Galerie Harfa\r\n\r\nAED umístěn na dispečinku ostrahy\r\n\r\ntyp: AED LIFEPAK CR Plus",
        "address": "Českomoravská 2420/15a, 190 00 Praha 9, Česko",
        "image": "https://intra.zachranka.app/files/2019/07/9cf88a1cfdb8cb46ff1c487a4de282ab.jpg",
        "mobile": "Ne",
        "attribute_type": null,
        "region": 10
    },
    {
        "id": 2107,
        "nazev": "NG Galerie Atrium",
        "lat": 50.075407,
        "lng": 14.418786,
        "html": "AED umístěn na operačním středisku ostrahy, v přízemí u vstupu z Karlova náměstí\r\n\r\ntyp: ZOLL AED PLUS",
        "address": "Karlovo nám. 2097/10, 120 00 Praha-Nové Město, Česko",
        "image": "https://intra.zachranka.app/files/2019/07/54548f6669086ffe0ed10542446aa618.jpg",
        "mobile": "Ne",
        "attribute_type": null,
        "region": 10
    },
    {
        "id": 2108,
        "nazev": "Galerie Myslbek",
        "lat": 50.085956,
        "lng": 14.424863,
        "html": "AED umístěn u ochranky Nákupní galerie Myslbek\r\n",
        "address": "Ovocný trh 1096/8, 110 00 Praha-Staré Město, Česko",
        "image": "https://intra.zachranka.app/files/2019/07/de8aef5d57c9b6acfacd0b1399e61360.jpg",
        "mobile": "Ne",
        "attribute_type": null,
        "region": 10
    },
    {
        "id": 2109,
        "nazev": "OC Chodov",
        "lat": 50.032069,
        "lng": 14.490996,
        "html": "AED umístěn na Bezpečnostním velínu ve zdravotnické tašce (v případě nutnosti vybíhá k místu proškolený pracovník ostrahy).\r\nK dispozici pediatrické defibrilační elektrody pro dospělé a pro děti.\r\n\r\ntyp: Life-POINT, model Pro AED",
        "address": "Roztylská 2321/19, Chodov, 148 00 Praha-Praha 11, Česko",
        "image": "https://intra.zachranka.app/files/2019/07/9857cb0b93b839d709b060421af57f08.jpg",
        "mobile": "Ne",
        "attribute_type": null,
        "region": 10
    },
    {
        "id": 2110,
        "nazev": "OC Letňany",
        "lat": 50.138074,
        "lng": 14.501979,
        "html": "AED umístěn na dispečinku ostrahy, který se nachází v zázemí správy OC Letňany (vstup přes recepci vedle pobočky České Spořitelny)\r\n\r\ntyp: ZOLL AED PLUS",
        "address": "Veselská 663, 199 00 Praha 18, Česko",
        "image": "https://intra.zachranka.app/files/2019/07/4add06b16a24c9e76d119dc2945a477d.jpg",
        "mobile": "Ne",
        "attribute_type": null,
        "region": 10
    },
    {
        "id": 2111,
        "nazev": "OC Nový Smíchov",
        "lat": 50.073162,
        "lng": 14.402253,
        "html": "Obchodní centrum Nový Smíchov\r\n\r\nAED umístěn u ostrahy u zásobovací rampy z ulice Kartouzská (přízemí). Není veřejně přístupný!\r\n\r\ntyp: LifePack CR plus",
        "address": "Plzeňská 8, 150 00 Praha 5-Anděl, Česko",
        "image": "https://intra.zachranka.app/files/2019/07/44c2d4f573057e2b5afd5e19a35cb1c3.jpg",
        "mobile": "Ne",
        "attribute_type": null,
        "region": 10
    },
    {
        "id": 2112,
        "nazev": "OC Palladium",
        "lat": 50.089335,
        "lng": 14.429819,
        "html": "K dispozici 4x AED:\r\n- recepce kancelářské budovy náměstí Republiky\r\n- recepce kancelářské budovy Na Poříčí\r\n- velín bezpečnostní služby\r\n- první pomoc (přízemí obchodního centra, zázemí naproti Infopointu)\r\n\r\ntyp: Philips HeartStart FRx",
        "address": "Náměstí Republiky 1, 110 00 Nové Město, Česko",
        "image": "https://intra.zachranka.app/files/2019/07/8589516a14ded00ed5f768744795ab3c.jpg",
        "mobile": "Ne",
        "attribute_type": null,
        "region": 10
    },
    {
        "id": 2113,
        "nazev": "OC Metropole Zličín",
        "lat": 50.052803,
        "lng": 14.285741,
        "html": "OC Metropole Zličín\r\n\r\nAED umístěn na infostánku nákupního centra\r\n\r\ntyp: ZOLL AED Plus",
        "address": "Nákupní centrum Metropole Zličín, Řevnická 1, 155 21 Zličín, Česko",
        "image": "https://intra.zachranka.app/files/2019/07/30745a80faefd14b77a0138a90c2b591.jpg",
        "mobile": "Ne",
        "attribute_type": null,
        "region": 10
    },
    {
        "id": 2114,
        "nazev": "Poliklinika Kartouzská",
        "lat": 50.074285,
        "lng": 14.401554,
        "html": "AED umístěn na vrátnici (EUC Klinika Praha a.s.)\r\n\r\ntyp: Primedic Heartsave\r\n\r\nNONSTOP",
        "address": "Kartouzská 204/6, Smíchov, 150 00 Praha-Praha 5, Česko",
        "image": "https://intra.zachranka.app/files/2019/07/ff9f20879665b38b5dc4501b341e335e.jpeg",
        "mobile": "Ne",
        "attribute_type": null,
        "region": 10
    },
    {
        "id": 2115,
        "nazev": "Poliklinika Plaňanská, Malešice",
        "lat": 50.080209,
        "lng": 14.501352,
        "html": "AED umístěn v lékárně, klíč k vyzvednutí na recepci\r\n\r\ntyp: MEDTRONIC LIFEPAK",
        "address": "Plaňanská 573/1, 108 00 Praha 10, Česko",
        "image": "https://intra.zachranka.app/files/57e844f7f7c4fc23f567948796032148.jpg",
        "mobile": "Ne",
        "attribute_type": null,
        "region": 10
    },
    {
        "id": 2116,
        "nazev": "Poliklinika Prahy 7",
        "lat": 50.099535,
        "lng": 14.430699,
        "html": "1. AED umístěn v přízemí na recepci\r\ntyp: HeartSine 350P \r\n\r\n2. AED umístěn v 1. patře v ordinaci kardiologie - interna u MUDr. Husaam Sibai\r\ntyp: Lifepak 1000",
        "address": "Františka Křížka 683/22, 170 00 Praha 7-Holešovice, Česko",
        "image": "https://intra.zachranka.app/files/2019/07/5dab7c4cf452281f98340f528d181d2f.jpg",
        "mobile": "Ne",
        "attribute_type": null,
        "region": 10
    },
    {
        "id": 2117,
        "nazev": "Revmatologický ústav, Praha 2",
        "lat": 50.067084,
        "lng": 14.421936,
        "html": "3 ks AED pro potřeby KPR umístěny:\r\n- 1x vyšetřovna II. lůžkové stanice (1. patro staré budovy)\r\n- 1x ambulance č. 14 (přízemí staré budovy)\r\n- 1x zákrokový sálek (přízemí nové budovy, ambulantní trakt)\r\n\r\ntyp: LIFEPAK 1000",
        "address": "Na Slupi 450/4, 128 00 Praha-Nové Město, Česko",
        "image": "https://intra.zachranka.app/files/2019/07/a22a6ab37734c92962d8ee4932b2dc15.jpg",
        "mobile": "Ne",
        "attribute_type": null,
        "region": 10
    },
    {
        "id": 2118,
        "nazev": "Rádio Svobodná Evropa",
        "lat": 50.07956,
        "lng": 14.4774,
        "html": "RFE - Rádio Svobodná Evropa",
        "address": "Izraelská, Praha 10, Česko",
        "image": "https://intra.zachranka.app/files/2019/07/c2020252f383b4602979c4696db406d8.jpeg",
        "mobile": "Ne",
        "attribute_type": null,
        "region": 10
    },
    {
        "id": 2122,
        "nazev": "Sportovní hala Folimanka",
        "lat": 50.06698,
        "lng": 14.431839,
        "html": "AED umístěn na recepci\r\n\r\ntyp: Lifepack 500",
        "address": "Na Folimance 2490/2, 120 00 Vinohrady, Česko",
        "image": "https://intra.zachranka.app/files/2019/07/2bfc4664cfa79a7469482bc6057d006e.jpg",
        "mobile": "Ne",
        "attribute_type": null,
        "region": 10
    },
    {
        "id": 2123,
        "nazev": "Úřad MČ Praha 1",
        "lat": 50.079429,
        "lng": 14.422786,
        "html": "Úřad MČ Praha 1",
        "address": "Vodičkova 681/18, 110 00 Praha-Nové Město, Česko",
        "image": "https://intra.zachranka.app/files/2019/07/c046a04d83735cd66d418aeb66a414a3.jpeg",
        "mobile": "Ne",
        "attribute_type": null,
        "region": 10
    },
    {
        "id": 2124,
        "nazev": "Úřad MČ Praha 5",
        "lat": 50.073005,
        "lng": 14.406976,
        "html": "Městská část Praha 5 \r\n\r\nAED umístěn na recepci \r\n(v pracovní dny od 7:00 - 20:00)\r\n\r\ntyp: LIFEPAK 1000",
        "address": "náměstí 14. října 1381/4, Smíchov, 150 00 Praha-Praha 5, Česko",
        "image": "https://intra.zachranka.app/files/2019/07/3577a47a617e2fe85d89fc6e9cded2d8.jpeg",
        "mobile": "Ne",
        "attribute_type": null,
        "region": 10
    },
    {
        "id": 2125,
        "nazev": "Škola PALESTRA",
        "lat": 50.129534,
        "lng": 14.549503,
        "html": "Vysoká škola tělesné výchovy a sportu PALESTRA spol.s r.o. \r\n\r\nAED umístěn v učebně Diagnostického centra ve 3. patře\r\n\r\ntyp: Medtronic LIFEPAK",
        "address": "Slovačíkova 151/4, 197 00 Praha-Kbely, Česko",
        "image": "https://intra.zachranka.app/files/2019/08/231022f04ee386139a9753194efaebd9.jpg",
        "mobile": "Ne",
        "attribute_type": null,
        "region": 10
    },
    {
        "id": 2126,
        "nazev": "Zimní stadion HC Kobra ",
        "lat": 50.031693,
        "lng": 14.428287,
        "html": "Hockey Club Kobra Praha\r\n\r\nAED umístěn na recepci zimního stadionu\r\n\r\ntyp: PHILIPS HEARTSTART \r\n\r\nNONSTOP",
        "address": "Mikuleckého 1584/1, 147 00 Praha 4-Braník, Česko",
        "image": "https://intra.zachranka.app/files/2019/07/7e4b5e8cd300ffeaf7721eaabe9affb0.jpg",
        "mobile": "Ne",
        "attribute_type": null,
        "region": 10
    },
    {
        "id": 2127,
        "nazev": "Zimní stadion HC Slavia Praha",
        "lat": 50.068805,
        "lng": 14.479708,
        "html": "Zimní stadion Eden\r\n\r\nAED umístěn v kabině A-týmu\r\n\r\ntyp: MEDTRONIC LIFEPAK 500",
        "address": "Vladivostocká 1460/10b, 100 00 Praha 10-Vršovice, Česko",
        "image": "https://intra.zachranka.app/files/2019/07/dd1f4f52f1dfe3890de87c6de9649336.jpg",
        "mobile": "Ne",
        "attribute_type": null,
        "region": 10
    },
    {
        "id": 2128,
        "nazev": "Zimní stadion Letňany",
        "lat": 50.133867,
        "lng": 14.503731,
        "html": "ICE ARENA Letňany\r\n\r\nAED umístěn na recepci dole v hale\r\n\r\ntyp: PHILIPS SMART Pads II Pad",
        "address": "Tupolevova 669, 199 00 Praha 18, Česko",
        "image": "https://intra.zachranka.app/files/2019/07/dc18dadbc4517179687deeb14be3ce02.jpg",
        "mobile": "Ne",
        "attribute_type": null,
        "region": 10
    },
    {
        "id": 2129,
        "nazev": "ZZS HMP",
        "lat": 50.075293,
        "lng": 14.455096,
        "html": "Zdravotnická záchranná služba hl. m. Prahy\r\n\r\nZdravotnické Operační Středisko - 5. patro",
        "address": "Korunní 2456/98, 101 00 Praha 10-Vinohrady, Česko",
        "image": "https://intra.zachranka.app/files/2019/07/53569c0a196f14320955b1dca39991d6.png",
        "mobile": "Ne",
        "attribute_type": null,
        "region": 10
    },
    {
        "id": 2150,
        "nazev": "Horská služba Červenohorské sedlo, Jeseníky",
        "lat": 50.125421,
        "lng": 17.152727,
        "html": "Stanice Horské služby Červenohorské sedlo, Jeseníky\r\n\r\nAED na stanici - typ: Lifepak 500\r\nAED ve vozidle - typ: Lifepak 1000\r\n\r\n- číslo Horské služby: 1210",
        "address": "Červenohorské sedlo, 79001,, Bělá pod Pradědem, Česko",
        "image": "https://intra.zachranka.app/files/c05fb5c3cffbb011ee8b08f26ddb8e29.jpg",
        "mobile": "Ano",
        "attribute_type": "60",
        "region": 3
    },
    {
        "id": 2151,
        "nazev": "Horská služba Ovčárna, Jeseníky",
        "lat": 50.071292,
        "lng": 17.236858,
        "html": "AED umístěn na stanici Horské služby Ovčárna, Jeseníky\r\n\r\ntyp: Corpuls AED semi-automat\r\n\r\n- číslo Horské služby: 1210",
        "address": "Malá Morávka 273, 793 36 Malá Morávka, Česko",
        "image": "https://intra.zachranka.app/files/fd4ec98346e7ac28d9c466d9a0dc9fae.jpg",
        "mobile": "Ano",
        "attribute_type": "60",
        "region": 3
    },
    {
        "id": 2152,
        "nazev": "Horská služba Karlov, Jeseníky",
        "lat": 50.019102,
        "lng": 17.28898,
        "html": "AED umístěn na stanici Horské služby Karlov, Jeseníky\r\n\r\ntyp: Corpuls AED semi-automat\r\n\r\n- číslo Horské služby: 1210",
        "address": "Karlov pod Pradědem 183, 793 36 Malá Morávka, Česko",
        "image": "https://intra.zachranka.app/files/2019/07/da075f4657f53718969c4860f7678d75.jpg",
        "mobile": "Ano",
        "attribute_type": "60",
        "region": 3
    },
    {
        "id": 2153,
        "nazev": "Horská služba Ramzová, Jeseníky",
        "lat": 50.196793,
        "lng": 17.06486,
        "html": "AED umístěn na stanici Horské služby Ramzová, Jeseníky\r\n\r\ntyp: Lifepak 500\r\n\r\n- číslo Horské služby: 1210",
        "address": "Ramzová 321, 788 25 Ostružná, Česko",
        "image": "https://intra.zachranka.app/files/eba757c23c09236bdc1b68dafa524a50.jpg",
        "mobile": "Ano",
        "attribute_type": "60",
        "region": 3
    },
    {
        "id": 2154,
        "nazev": "Horská služba Dolní Morava, Jeseníky",
        "lat": 50.151593,
        "lng": 16.816419,
        "html": "Stanice Horské služby Dolní Morava, Jeseníky\r\n\r\nAED na stanici - typ: Corpuls AED semi-automat\r\nAED ve vozidle - typ: Corpuls AED semi-automat\r\n\r\n- číslo Horské služby: 1210",
        "address": "Velká Morava 59, 561 69 Dolní Morava, Česko",
        "image": "https://intra.zachranka.app/files/e12166cfd59742af5f88dba6a7b582a0.jpg",
        "mobile": "Ano",
        "attribute_type": "60",
        "region": 3
    },
    {
        "id": 2174,
        "nazev": "Psychiatrická nemocnice Marianny Oranžské",
        "lat": 50.440577,
        "lng": 16.893577,
        "html": "AED umístěn na Příjmovém oddělení IV. - místnost na zdravotnické přístroje\r\n\r\ntyp: BTL-METRAX N250",
        "address": "Ves Bílá Voda 1, 790 69 Bílá Voda, Česko",
        "image": "https://intra.zachranka.app/files/2019/07/937cc98604c7d1e53808fc16b1e88b50.jpg",
        "mobile": "Ne",
        "attribute_type": null,
        "region": 3
    },
    {
        "id": 2175,
        "nazev": "Městská policie Jeseník",
        "lat": 50.226253,
        "lng": 17.201663,
        "html": "AED umístěn ve služebním vozidle\r\n\r\ntyp: PHILIPS\r\n\r\nNONSTOP",
        "address": "Dukelská 718/6, 790 01 Jeseník, Česko",
        "image": "https://intra.zachranka.app/files/2019/07/4ac62943c947e005522a8762a99e6dcb.jpeg",
        "mobile": "Ano",
        "attribute_type": "60",
        "region": 3
    },
    {
        "id": 2176,
        "nazev": "Sanatorium EDEL",
        "lat": 50.252139,
        "lng": 17.390863,
        "html": "Sanatorium Edel s.r.o. \r\n\r\nAED umístěn na sesterně\r\n\r\ntyp: ZOLL Plus",
        "address": "Lázeňská 491, 793 76 Zlaté Hory, Česko",
        "image": "https://intra.zachranka.app/files/2019/07/644cbd28717318fe7499253cc905ccea.jpeg",
        "mobile": "Ne",
        "attribute_type": null,
        "region": 3
    },
    {
        "id": 2177,
        "nazev": "Obecní policie Hlubočky",
        "lat": 49.629137,
        "lng": 17.404436,
        "html": "AED umístěn na služebně, případně ve služebním vozidle\r\n\r\ntyp: Lifepak CR Plus\r\n\r\nDostupné pouze během služby strážníků.",
        "address": "Nám. družby 13, 783 61 Hlubočky, Česko",
        "image": "https://intra.zachranka.app/files/2019/07/2d015e85e5d23317c8ff45a822d13e2b.jpeg",
        "mobile": "Ano",
        "attribute_type": "60",
        "region": 3
    },
    {
        "id": 2178,
        "nazev": "Městská policie Litovel",
        "lat": 49.701602,
        "lng": 17.075053,
        "html": "AED umístěn ve služebním vozidle\r\n\r\ntyp: PHILIPS HeartStart FRx",
        "address": "Nám. Př. Otakara 778/1B, 784 01 Litovel, Česko",
        "image": "https://intra.zachranka.app/files/2019/07/36e32cd64646cd9cb7ecabd0c782d5fe.jpg",
        "mobile": "Ano",
        "attribute_type": "60",
        "region": 3
    },
    {
        "id": 2179,
        "nazev": "Aquapark Olomouc",
        "lat": 49.574426,
        "lng": 17.222935,
        "html": "AED umístěn v ošetřovně (2. NP)\r\n\r\ntyp: LIFEPACK CR plus",
        "address": "Kafkova 526/21, Slavonín, 783 01 Olomouc, Česko",
        "image": "https://intra.zachranka.app/files/2019/07/8daab2f6e81fd5d76286695a46648d89.jpg",
        "mobile": "Ne",
        "attribute_type": null,
        "region": 3
    },
    {
        "id": 2180,
        "nazev": "OC Olomouc CITY",
        "lat": 49.602248,
        "lng": 17.220446,
        "html": "AED umístěn na dialyzačním sále v 1. patře OC CITY (B. Braun Avitum s.r.o.)\r\n\r\ntyp: Philips DFM 100",
        "address": "Pražská 255/41, Řepčín, 779 00 Olomouc, Česko",
        "image": "https://intra.zachranka.app/files/2019/07/3961fcf90b1e911c18e2b34855d4b8b2.jpg",
        "mobile": "Ne",
        "attribute_type": null,
        "region": 3
    },
    {
        "id": 2182,
        "nazev": "Dětské centrum Ostrůvek",
        "lat": 49.576275,
        "lng": 17.260567,
        "html": "AED umístěn na sesterně II. oddělení\r\n\r\ntyp: PAD 300P",
        "address": "U Dětského domova 269, 779 00 Olomouc, Česko",
        "image": "https://intra.zachranka.app/files/2019/07/2cca345da3fcd38974beb015cdbc0d2b.jpg",
        "mobile": "Ne",
        "attribute_type": null,
        "region": 3
    },
    {
        "id": 2183,
        "nazev": "Galerie Šantovka",
        "lat": 49.586742,
        "lng": 17.2579,
        "html": "AED umístěn na velínu bezpečnostní služby M2C v 2.NP\r\n\r\ntyp: Medtronic Lifepak CR plus\r\n\r\npondělí-neděle 9:00 - 21:00",
        "address": "Polská 1, 779 00 Olomouc, Česko",
        "image": "https://intra.zachranka.app/files/2019/07/3bb136c252f73f12cbd1daf9ebcc75db.jpg",
        "mobile": "Ne",
        "attribute_type": null,
        "region": 3
    },
    {
        "id": 2184,
        "nazev": "Magistrát Olomouc",
        "lat": 49.593711,
        "lng": 17.251156,
        "html": "AED umístěn u ostrahy objektu radnice (za hlavní branou do objektu, přízemí)\r\n\r\ntyp: Lifepak CR Plus",
        "address": "Radnice, Horní nám. 583, 779 11 Olomouc, Česko",
        "image": "https://intra.zachranka.app/files/2019/07/0501f2c01ade1f7cd482ef8b879eb308.jpg",
        "mobile": "Ne",
        "attribute_type": null,
        "region": 3
    },
    {
        "id": 2185,
        "nazev": "Městská policie Olomouc",
        "lat": 49.589875,
        "lng": 17.255835,
        "html": "3x AED \r\numístěn: \r\n-v prvosledovém vozidle\r\n-ve vozidle dopravní skupiny\r\n-na služebně\r\n\r\ntyp: LIFEPAK 500, MEPAD",
        "address": "Kateřinská 779/23, 779 00 Olomouc, Česko",
        "image": "https://intra.zachranka.app/files/2019/07/e895ff419c10afc024db35014e5e8557.jpg",
        "mobile": "Ano",
        "attribute_type": "60",
        "region": 3
    },
    {
        "id": 2186,
        "nazev": "Vazební věznice Olomouc",
        "lat": 49.59172,
        "lng": 17.24861,
        "html": "K dispozici 4 ks AED:\r\n1. Inspektor dozorčí služby - kancělář IDS (typ: OMS Medi)\r\n2. Převozový vůz (typ: IPAD CU SPI Polymed Medical)\r\n3. Vrchní inspektor strážní služby VISS – operační středisko (typ: SAVE ONE ZMF Medical)\r\n4. Zdravotnické středisko Vazební věznice: kartotéka (typ: SAVE ONE ZMF Medical)\r\n\r\nVazební věznice Olomouc sídlí v centru města na křižovatce ulic tř. Svobody, ul. Havlíčkova a ul. Švermova.",
        "address": "Švermova 2, 779 00 Olomouc, Česko",
        "image": "https://intra.zachranka.app/files/2019/07/adf672e8a2a32acfe72c7c415526ce0b.jpg",
        "mobile": "Ano",
        "attribute_type": "60",
        "region": 3
    },
    {
        "id": 2187,
        "nazev": "Lázně Slatinice ",
        "lat": 49.562373,
        "lng": 17.096412,
        "html": "2x AED umístěny: \r\n1) LD Mánes - v 1. patře na sesterně 1; typ: PRIMEDIC Heart Save AED M\r\n2) LD Balnea - na sesterně v přízemí; typ: PRIMEDIC Heart Save AED Pad",
        "address": "Slatinice 29, 783 42 Slatinice, Česko",
        "image": "https://intra.zachranka.app/files/2019/07/9ea2c42d119c07e512f97413c5b69d2a.jpg",
        "mobile": "Ne",
        "attribute_type": null,
        "region": 3
    },
    {
        "id": 2188,
        "nazev": "Zimní stadion Uničov",
        "lat": 49.769971,
        "lng": 17.110991,
        "html": "AED umístěn mezi střídačkami v ošetřovně na hale \r\n\r\ntyp: PHILIPS HeartStart",
        "address": "Pionýrů 1187, 783 91 Uničov, Česko",
        "image": "https://intra.zachranka.app/files/2019/07/f9d091e0163791eb389b00a209a2d16d.jpeg",
        "mobile": "Ne",
        "attribute_type": null,
        "region": 3
    },
    {
        "id": 2189,
        "nazev": "Zimní stadion Přerov",
        "lat": 49.447593,
        "lng": 17.464614,
        "html": "AED umístěn u ledové plochy na trestné lavici\r\n\r\ntyp: AED Philips HeartStart FRx +",
        "address": "Petřivalského 2885/5, Město, 750 02 Přerov, Česko",
        "image": "https://intra.zachranka.app/files/2019/07/6675bbeb3589ece3165ccfa5190605b3.JPG",
        "mobile": "Ne",
        "attribute_type": null,
        "region": 3
    },
    {
        "id": 2190,
        "nazev": "Domov seniorů Prostějov",
        "lat": 49.476351,
        "lng": 17.099919,
        "html": "AED umístěn u vrchní sestry\r\n\r\ntyp: PHILIPS",
        "address": "Nerudova 1666/70, 796 01 Prostějov, Česko",
        "image": "https://intra.zachranka.app/files/2019/08/1d04018b54ba45e1a48463b796ce91b2.jpeg",
        "mobile": "Ne",
        "attribute_type": null,
        "region": 3
    },
    {
        "id": 2191,
        "nazev": "HZS výcvikové středisko Hamry",
        "lat": 49.738057,
        "lng": 15.929814,
        "html": "AED umístěn v místnosti sloužící k uskladnění prostředků k provádění výcviku ve flashover kontejneru\r\n\r\ntyp: ZOLL - AED Plus",
        "address": "Hamry 107, 539 01 Hamry, Česko",
        "image": "https://intra.zachranka.app/files/2019/08/6997ed7b38debd027928738893eb928b.png",
        "mobile": "Ne",
        "attribute_type": null,
        "region": 3
    },
    {
        "id": 2192,
        "nazev": "Městská policie Prostějov",
        "lat": 49.474318,
        "lng": 17.113871,
        "html": "3 ks AED umístěny ve služebním vozidle\r\n\r\ntyp: ME PAD",
        "address": "Havlíčkova 2953/4, 796 01 Prostějov, Česko",
        "image": "https://intra.zachranka.app/files/2019/08/1071f26e1b183c5022b879f197a06e6f.jpeg",
        "mobile": "Ano",
        "attribute_type": "60",
        "region": 3
    },
    {
        "id": 2193,
        "nazev": "firma TDK Electronics, Šumperk",
        "lat": 49.951254,
        "lng": 16.962385,
        "html": "AED umístěn ve zdravotní místnosti u recepce, kde je nepřetržitá služba (budova B1)\r\n\r\ntyp: ZOLL",
        "address": "Feritová 1, 787 01 Šumperk, Česko",
        "image": "https://intra.zachranka.app/files/2019/08/47147665074785bf15c4e4e393851d24.jpg",
        "mobile": "Ne",
        "attribute_type": null,
        "region": 3
    },
    {
        "id": 2194,
        "nazev": "Krajský úřad Ústeckého kraje - budova C",
        "lat": 50.662928,
        "lng": 14.037808,
        "html": "AED umístěn ve vstupní hale\r\n\r\ntyp: LIFEPAK 1000",
        "address": "Stroupežnického 1326/16, 400 01 Ústí nad Labem-město-Ústí nad Labem-centrum, Česko",
        "image": "https://intra.zachranka.app/files/2019/08/4f5ff737e598a35faf244270e1d4d30f.jpg",
        "mobile": "Ne",
        "attribute_type": null,
        "region": 11
    },
    {
        "id": 2202,
        "nazev": "firma Black&Decker (Czech) s.r.o.",
        "lat": 50.639732,
        "lng": 13.990788,
        "html": "AED umístěn v hlavní budově naproti jídelně\r\n\r\ntyp: PowerHeart AED G3 Automatic",
        "address": "Trmice 873, 400 04 Trmice, Česko",
        "image": "https://intra.zachranka.app/files/2019/08/2e8f893ffc874bc3f5ec641208853199.jpeg",
        "mobile": "Ne",
        "attribute_type": null,
        "region": 11
    },
    {
        "id": 2203,
        "nazev": "firma Greif Czech Republic",
        "lat": 50.663442,
        "lng": 14.00286,
        "html": "firma Greif Czech Republic, a.s.\r\n\r\nAED umístěn přímo v kanceláři výroby\r\n\r\ntyp: Powerheart AED G3 Automatic",
        "address": "Konečná 252, 400 01 Ústí nad Labem-město-Klíše, Česko",
        "image": "https://intra.zachranka.app/files/2019/07/3356ab87ff644a3048fe368aa19fd6b4.jpg",
        "mobile": "Ne",
        "attribute_type": null,
        "region": 11
    },
    {
        "id": 2204,
        "nazev": "Zdravotní středisko Bohušovice nad Ohří",
        "lat": 50.492463,
        "lng": 14.148895,
        "html": "AED umístěn v ordinaci praktického lékaře (ve zvýšeném přízemí)\r\n\r\ntyp: Philips Medical Systems",
        "address": "Brozanská 404, 411 56 Bohušovice nad Ohří, Česko",
        "image": "https://intra.zachranka.app/files/2019/07/54d85b2f27f22f888970064b25de9afc.jpg",
        "mobile": "Ne",
        "attribute_type": null,
        "region": 11
    },
    {
        "id": 2205,
        "nazev": "Městský úřad Litvínov",
        "lat": 50.598793,
        "lng": 13.611739,
        "html": "AED umístěn v informační kanceláři u vstupu do budovy\r\n\r\ntyp: CardiAid",
        "address": "nám. Míru 11, 436 01 Litvínov, Česko",
        "image": "https://intra.zachranka.app/files/2019/07/6c808c69a0204d7696f33d66081caeac.jpg",
        "mobile": "Ne",
        "attribute_type": null,
        "region": 11
    },
    {
        "id": 2207,
        "nazev": "Aquadrom Most",
        "lat": 50.495886,
        "lng": 13.64722,
        "html": "AED umístěn v místnosti První pomoci v kryté bazénové hale\r\n\r\ntyp: PHILIPS HeartStart FRx",
        "address": "Topolová 801, 434 01 Most, Česko",
        "image": "https://intra.zachranka.app/files/2019/07/30f4e55c6e99adca9fc6e3b433b250ee.jpeg",
        "mobile": "Ne",
        "attribute_type": null,
        "region": 11
    },
    {
        "id": 2208,
        "nazev": "Zimní stadion Most",
        "lat": 50.513333,
        "lng": 13.647116,
        "html": "A-BENET Arena Most\r\n\r\nAED umístěn na vrátnici\r\n\r\ntyp: PHILIPS",
        "address": "Rudolická 1700/2, 434 01 Most, Česko",
        "image": "https://intra.zachranka.app/files/2019/07/fe86190e75562b06677eac9ac0aea7fd.jpg",
        "mobile": "Ne",
        "attribute_type": null,
        "region": 11
    },
    {
        "id": 2209,
        "nazev": "Zimní stadion Roudnice nad Labem",
        "lat": 50.424192,
        "lng": 14.249793,
        "html": "AED umístěn u obsluhy (strojnící - výdej klíčů)\r\n\r\ntyp: Saver One",
        "address": "třída Tomáša Garrigua Masaryka 2498, 413 01 Roudnice nad Labem, Česko",
        "image": "https://intra.zachranka.app/files/2019/07/065bbb5bc3d97cf74ae9bbdcaba51945.jpeg",
        "mobile": "Ne",
        "attribute_type": null,
        "region": 11
    },
    {
        "id": 2210,
        "nazev": "Domov pro seniory Severní Terasa",
        "lat": 50.684652,
        "lng": 14.019349,
        "html": "AED umístěn v ordinaci (ambulanci) v přízemí budovy\r\n\r\ntyp: Philips HeartStart FRx\r\n\r\nNONSTOP",
        "address": "V Klidu 3133/12, 400 11 Ústí nad Labem-Severní Terasa, Česko",
        "image": "https://intra.zachranka.app/files/2019/07/7f6778bfb88d67aae3e9947bca22b781.jpg",
        "mobile": "Ne",
        "attribute_type": null,
        "region": 11
    },
    {
        "id": 2211,
        "nazev": "Městský úřad Žatec",
        "lat": 50.330032,
        "lng": 13.544172,
        "html": "AED umístěn na pracovišti Podatelny a Informací MěÚ v přízemí radnice\r\n\r\ntyp: Philips HeartStart FRx",
        "address": "nám. Svobody 1, 438 01 Žatec, Česko",
        "image": "https://intra.zachranka.app/files/2019/07/673cdeefbd45167ee8c90e54a83695f1.jpg",
        "mobile": "Ne",
        "attribute_type": null,
        "region": 11
    },
    {
        "id": 2212,
        "nazev": "Zimní stadion Děčín",
        "lat": 50.774846,
        "lng": 14.219022,
        "html": "AED umístěn na recepci HC Děčín\r\n\r\ntyp: ZOLL AED plus",
        "address": "Oblouková 638/21, 405 02 Děčín, Česko",
        "image": "https://intra.zachranka.app/files/2019/07/a41f13fe505355babf6814515d8f1370.jpg",
        "mobile": "Ne",
        "attribute_type": null,
        "region": 11
    },
    {
        "id": 2213,
        "nazev": "OC FORUM Ústí nad Labem",
        "lat": 50.658666,
        "lng": 14.041087,
        "html": "AED umístěn u ochranky\r\n\r\ntyp: Philips Heartstart FRx",
        "address": "Bílinská 3490/6, 400 01 Ústí nad Labem-město-Ústí nad Labem-centrum, Česko",
        "image": "https://intra.zachranka.app/files/2019/07/d4dbe97287f7b08b501280d82b11397f.jpg",
        "mobile": "Ne",
        "attribute_type": null,
        "region": 11
    },
    {
        "id": 2214,
        "nazev": "Krajské ředitelství policie Ústeckého kraje",
        "lat": 50.659884,
        "lng": 14.03605,
        "html": "AED umístěn u ostrahy\r\n\r\ntyp: Lifepak 1000 \r\n\r\nDostupné jen pro zaměstnance.",
        "address": "Lidické nám. 899/9, 400 01 Ústí nad Labem-město-Ústí nad Labem-centrum, Česko",
        "image": "https://intra.zachranka.app/files/2019/07/abc3a5cf63617eda86118233366ce2b2.jpg",
        "mobile": "Ne",
        "attribute_type": null,
        "region": 11
    },
    {
        "id": 2216,
        "nazev": "Sportovní hala Pedagogické fakulty UJEP",
        "lat": 50.665595,
        "lng": 14.022361,
        "html": "Pedagogická fakulta Univerzita J.E. Purkyně\r\n\r\nAED umístěn ve sportovní hale na recepci (vjezd ke sportovní hale je z ul. Resslova)\r\n\r\ntyp: Philips HeartStart FRx",
        "address": "České mládeže 360/8, 400 01 Ústí nad Labem-město-Klíše, Česko",
        "image": "https://intra.zachranka.app/files/2019/07/2f87f8f66cc6ba314f36adb6d1078871.jpg",
        "mobile": "Ne",
        "attribute_type": null,
        "region": 11
    },
    {
        "id": 2217,
        "nazev": "Aquapark Děčín",
        "lat": 50.773955,
        "lng": 14.215782,
        "html": "AED umístěn v Plavčíkárně (ošetřovna) vnitřní část areálu\r\n\r\ntyp: Lifepak cr plus",
        "address": "Oblouková 1400/6, 405 02 Děčín, Česko",
        "image": "https://intra.zachranka.app/files/2019/07/0985c0ff68fbe9217b94a631ce750fed.png",
        "mobile": "Ne",
        "attribute_type": null,
        "region": 11
    },
    {
        "id": 2218,
        "nazev": "OC Olympia Teplice",
        "lat": 50.661043,
        "lng": 13.863715,
        "html": "AED umístěn v informačním stánku (uprostřed hlavní pasáže)\r\n\r\ntyp: LIFEPAK CR Plus",
        "address": "Srbická 464, Sobědruhy, 415 10 Teplice, Česko",
        "image": "https://intra.zachranka.app/files/2019/07/075d5c40a614a54d1f54162f5d13572f.jpg",
        "mobile": "Ne",
        "attribute_type": null,
        "region": 11
    },
    {
        "id": 2219,
        "nazev": "Domov pro seniory Šluknov ",
        "lat": 51.001107,
        "lng": 14.4539,
        "html": "Domov pro seniory Šluknov - Krásná Lípa, p. o.\r\n\r\nAED umístěn na sesterně\r\n\r\ntyp: Philips Heartstart",
        "address": "Křečanská 630, 407 77 Šluknov, Česko",
        "image": "https://intra.zachranka.app/files/2019/07/e8dfb89138029222692824ca715d3c5c.jpg",
        "mobile": "Ne",
        "attribute_type": null,
        "region": 11
    },
    {
        "id": 2220,
        "nazev": "Domov pro osoby se zdravotním postižením Brtníky",
        "lat": 50.947596,
        "lng": 14.441433,
        "html": "Domov pro osoby se zdravotním postižením Brtníky, p.o.\r\n\r\nAED umístěn v 2. NP v pracovní místnosti (sesterna)\r\n\r\ntyp: PHILIPS HEARTSTART FRx",
        "address": "Brtníky 119, 407 60 Staré Křečany, Česko",
        "image": "https://intra.zachranka.app/files/2019/07/160b727e202fa032342a6e7d206f2056.jpg",
        "mobile": "Ne",
        "attribute_type": null,
        "region": 11
    },
    {
        "id": 2221,
        "nazev": "Domov Severka Jiříkov",
        "lat": 50.992009,
        "lng": 14.576139,
        "html": "Domov Severka Jiříkov, p.o.\r\n\r\nAED umístěn na hlavní sesterně v přízemí budovy\r\n\r\ntyp: Philips Heartstart FRx\r\n\r\nSlouží pro potřeby klientů domova!",
        "address": "Filipovská 582/20, Starý Jiříkov, 407 53 Jiříkov, Česko",
        "image": "https://intra.zachranka.app/files/2019/07/a5156b4d4bcce7fcc8357cae1edb486c.jpg",
        "mobile": "Ne",
        "attribute_type": null,
        "region": 11
    },
    {
        "id": 2222,
        "nazev": "Domovy pro osoby se zdravotním postižením Stará Oleška",
        "lat": 50.800512,
        "lng": 14.336506,
        "html": "Domovy pro osoby se zdravotním postižením Oleška - Kamenice, p.o.\r\n\r\nAED umístěn na služebně pracovníků v 1. patře hlavní budovy\r\n\r\ntyp: Philips Heartstart FRx",
        "address": "Stará Oleška 131, 405 02 Huntířov, Česko",
        "image": "https://intra.zachranka.app/files/2019/07/e0f2a325ff121ec202207bf31e9cef04.jpg",
        "mobile": "Ne",
        "attribute_type": null,
        "region": 11
    },
    {
        "id": 2223,
        "nazev": "Domovy pro seniory Mašťov",
        "lat": 50.261768,
        "lng": 13.278046,
        "html": "Domov pro seniory a Domov pro osoby se zdravotním postižením Mašťov\r\n\r\nAED umístěn u vstupu na recepci\r\n\r\ntyp: PHILIPS Heartstart",
        "address": "Sídliště 232, 431 56 Mašťov, Česko",
        "image": "https://intra.zachranka.app/files/2019/07/a8bc298731112e3e68e17d1fcc3f8eb3.jpg",
        "mobile": "Ne",
        "attribute_type": null,
        "region": 11
    },
    {
        "id": 2224,
        "nazev": "Ústav sociální péče Snědovice",
        "lat": 50.503807,
        "lng": 14.390501,
        "html": "Ústav sociální péče pro tělesně postižené Snědovice, p.o.\r\n\r\nAED umístěn v hlavní budově Zámku, na chodbě v 1. patře (v blízkosti denních místností zaměstnanců)\r\n\r\ntyp: PHILIPS Heartstart FRx",
        "address": "Snědovice 1, 411 74 Snědovice, Česko",
        "image": "https://intra.zachranka.app/files/2019/07/319e2b28f3ecc94254af01997cd10799.jpg",
        "mobile": "Ne",
        "attribute_type": null,
        "region": 11
    },
    {
        "id": 2225,
        "nazev": "Domov sociální péče Chotěšov",
        "lat": 50.437234,
        "lng": 14.084274,
        "html": "AED umístěn v 1. patře - na chodbě u kanceláří vedení domova\r\n\r\ntyp: Philips Heartstart",
        "address": "Libochovická 166, 410 02 Chotěšov, Česko",
        "image": "https://intra.zachranka.app/files/2019/07/492ff425dfccc97777c18c77a3447cab.jpg",
        "mobile": "Ne",
        "attribute_type": null,
        "region": 11
    },
    {
        "id": 2226,
        "nazev": "Domov Na Pustaji Křešice",
        "lat": 50.524354,
        "lng": 14.23151,
        "html": "AED umístěn ve vstupní chodbě do hlavní budovy, hned u ordinace\r\n\r\ntyp: Philips HeartStart FRx",
        "address": "Encovanská 73, 411 48 Křešice, Česko",
        "image": "https://intra.zachranka.app/files/2019/07/0c4648f439428002ce8118da3916a318.jpg",
        "mobile": "Ne",
        "attribute_type": null,
        "region": 11
    },
    {
        "id": 2227,
        "nazev": "Domov sociální péče Skalice",
        "lat": 50.568184,
        "lng": 14.138276,
        "html": "AED umístěn ve vstupní hale hlavní budovy\r\n\r\ntyp: Philips HeartStart FRx",
        "address": "Skalice 44, 412 01 Žitenice, Česko",
        "image": "https://intra.zachranka.app/files/2019/07/a7487bd1f2334f9e9b8cdb9b28315846.jpg",
        "mobile": "Ne",
        "attribute_type": null,
        "region": 11
    },
    {
        "id": 2228,
        "nazev": "Domov důchodců Milešov",
        "lat": 50.539934,
        "lng": 13.936206,
        "html": "Domov důchodců Milešov",
        "address": "Milešov 1, 411 32 Velemín, Česko",
        "image": "https://intra.zachranka.app/files/2019/07/38df428ee4f75aeecb233d12196b0a07.jpg",
        "mobile": "Ne",
        "attribute_type": null,
        "region": 11
    },
    {
        "id": 2229,
        "nazev": "Domov důchodců Čížkovice",
        "lat": 50.483044,
        "lng": 14.029833,
        "html": "AED umístěn na chodbě u hlavního schodiště, u dveří na oddělení\r\n\r\ntyp: Philips Heartstart",
        "address": "Jiráskova 1, 411 12 Čížkovice, Česko",
        "image": "https://intra.zachranka.app/files/2019/07/8c6ae72313244acb813162177441e11b.jpg",
        "mobile": "Ne",
        "attribute_type": null,
        "region": 11
    },
    {
        "id": 2230,
        "nazev": "Domov \"Bez zámků\" Tuchořice",
        "lat": 50.28403108,
        "lng": 13.66150283,
        "html": "Domov \"Bez zámků\" Tuchořice",
        "address": "Tuchořice 1, 439 69 Tuchořice",
        "image": "https://intra.zachranka.app/files/2019/07/a4736bfaf5b27a65306abae3ea76c291.jpg",
        "mobile": "Ne",
        "attribute_type": null,
        "region": 11
    },
    {
        "id": 2231,
        "nazev": "Domov sociálních služeb Meziboří",
        "lat": 50.622194,
        "lng": 13.60266,
        "html": "AED umístěn v přízemí na chodbě u sesterny\r\n\r\ntyp: Philips HeartStart FRx",
        "address": "Okružní 104, 435 13 Meziboří, Česko",
        "image": "https://intra.zachranka.app/files/2019/07/987f89c8c4e1ff85d6aba420b65f74d0.jpg",
        "mobile": "Ne",
        "attribute_type": null,
        "region": 11
    },
    {
        "id": 2232,
        "nazev": "Domovy sociálních služeb Litvínov",
        "lat": 50.590869,
        "lng": 13.553774,
        "html": "AED umístěn u recepce\r\n\r\ntyp: Philips Heartstart",
        "address": "Zátiší 177, Janov, 435 42 Litvínov, Česko",
        "image": "https://intra.zachranka.app/files/2019/08/d195487aeada4406659c7817946e4c50.jpg",
        "mobile": "Ne",
        "attribute_type": null,
        "region": 11
    },
    {
        "id": 2233,
        "nazev": "Domovy sociálních služeb Háj u Duchcova",
        "lat": 50.631586,
        "lng": 13.71339,
        "html": "Domovy sociálních služeb Háj a Nová Ves",
        "address": "Kubátova 269, 417 22 Háj u Duchcova, Česko",
        "image": null,
        "mobile": "Ne",
        "attribute_type": null,
        "region": 11
    },
    {
        "id": 2234,
        "nazev": "Domov pro osoby se zdravotním postižením Nová Ves v Horách",
        "lat": 50.601375,
        "lng": 13.464072,
        "html": "DOZP Nová Ves v Horách",
        "address": "Nová Ves v Horách 206, 435 45 Nová Ves v Horách, Česko",
        "image": null,
        "mobile": "Ne",
        "attribute_type": null,
        "region": 11
    },
    {
        "id": 2235,
        "nazev": "Podkrušnohorské domovy sociálních služeb",
        "lat": 50.677464,
        "lng": 13.785924,
        "html": "Podkrušnohorské domovy sociálních služeb",
        "address": "Na Výšině 494, 417 01 Dubí, Česko",
        "image": "https://intra.zachranka.app/files/2019/08/6ceec78c8417c346d908d0ebe7067513.jpg",
        "mobile": "Ne",
        "attribute_type": null,
        "region": 11
    },
    {
        "id": 2237,
        "nazev": "Zámek Větruše",
        "lat": 50.65504,
        "lng": 14.039646,
        "html": "AED umístěn na sloupu vedle stánku s občerstvením\r\n\r\ntyp: sloup AED PAD s přístrojem HeartStart FRx Philips",
        "address": "Fibichova 392/25, 400 01 Ústí nad Labem-město, Česko",
        "image": "https://intra.zachranka.app/files/2019/08/a2e452443b4034e4d19948fc7b78f51b.png",
        "mobile": "Ne",
        "attribute_type": null,
        "region": 11
    },
    {
        "id": 2239,
        "nazev": "Obecní úřad Zubrnice",
        "lat": 50.650073,
        "lng": 14.221115,
        "html": "AED umístěn u obecního úřadu\r\n\r\ntyp: PHILIP HeartStart",
        "address": "Zubrnice 38, 400 02 Zubrnice, Česko",
        "image": "https://intra.zachranka.app/files/2019/09/43ec6db07abe359fa6ca59209154e649.jpg",
        "mobile": "Ne",
        "attribute_type": null,
        "region": 11
    },
    {
        "id": 2240,
        "nazev": "Hlavní vlakové nádraží Ústí nad Labem",
        "lat": 50.659684,
        "lng": 14.04417,
        "html": "AED umístěn na sloupu v hale hlavního vlakového nádraží (u prodeje jízdenek)",
        "address": "U Nádraží 965/6, 400 01 Ústí nad Labem-město-Ústí nad Labem-centrum, Česko",
        "image": "https://intra.zachranka.app/files/2019/09/83338886a1a172b39f2012fde0cb7a51.jpg",
        "mobile": "Ne",
        "attribute_type": null,
        "region": 11
    },
    {
        "id": 2241,
        "nazev": "Pravčická brána",
        "lat": 50.883922,
        "lng": 14.281497,
        "html": "AED umístěn na sloupu na Pravčické bráně (budova pokladny z boku)",
        "address": "Hřensko 82, 407 17 Hřensko, Česko",
        "image": "https://intra.zachranka.app/files/2019/09/34f399b2bda5bd604167fca5d0586663.jpg",
        "mobile": "Ne",
        "attribute_type": null,
        "region": 11
    },
    {
        "id": 2242,
        "nazev": "Děčínský Sněžník",
        "lat": 50.793282,
        "lng": 14.109109,
        "html": "AED umístěn na sloupu u restaurace Pod Rozhlednou\r\n\r\ntyp: Philips HeartStart FRx",
        "address": "Sněžník 125, 405 02 Jílové, Česko",
        "image": "https://intra.zachranka.app/files/2019/09/da7db96ae12b2a536854d8235f6a0a81.jpg",
        "mobile": "Ne",
        "attribute_type": null,
        "region": 11
    },
    {
        "id": 2243,
        "nazev": "Komáří vížka",
        "lat": 50.70277,
        "lng": 13.854585,
        "html": "AED umístěn na sloupu u vchodu do hotelu Komáří vížka",
        "address": "Horní Krupka 120, 417 41 Krupka, Česko",
        "image": "https://intra.zachranka.app/files/2019/09/df7bacfbf3f1e976091bc99c7539e46a.jpg",
        "mobile": "Ne",
        "attribute_type": null,
        "region": 11
    },
    {
        "id": 2244,
        "nazev": "Zoopark Chomutov",
        "lat": 50.473539,
        "lng": 13.420272,
        "html": "AED umístěn na sloupu v areálu Zooparku na rozcestí u stanoviště Expres Safari",
        "address": "Přemyslova 259, 430 01 Chomutov, Česko",
        "image": "https://intra.zachranka.app/files/2019/09/30e34b3d46c2d5323dd6c75186ab93b8.jpg",
        "mobile": "Ne",
        "attribute_type": null,
        "region": 11
    },
    {
        "id": 2245,
        "nazev": "Pevnost Terezín (MALÁ PEVNOST)",
        "lat": 50.513258,
        "lng": 14.166034,
        "html": "AED umístěn na sloupu u vstupní brány (suvenýry) do Malé Pevnosti po pravé straně\r\n\r\ntyp: PHILIPS HeartStart FRx",
        "address": "Malá pevnost 306, 411 55 Terezín, Česko",
        "image": "https://intra.zachranka.app/files/2019/09/2a7822fb58a11f38d2dbae0202e8f371.jpg",
        "mobile": "Ne",
        "attribute_type": null,
        "region": 11
    },
    {
        "id": 2246,
        "nazev": "Milešovka",
        "lat": 50.554827,
        "lng": 13.931163,
        "html": "AED umístěn na sloupu na budově meteorologické stanice",
        "address": "Milešov 86, 411 32 Velemín, Česko",
        "image": "https://intra.zachranka.app/files/2019/09/cf656be84cc1f057abc7a71683e60116.jpg",
        "mobile": "Ne",
        "attribute_type": null,
        "region": 11
    },
    {
        "id": 2247,
        "nazev": "Hasiči Adamov (JSDH)",
        "lat": 49.293369,
        "lng": 16.664036,
        "html": "AED umístěn ve vozidle Jednotky sboru dobrovolných hasičů Adamov\r\n\r\ntyp: Lifepak 1000",
        "address": "Fibichova 436/45, 679 04 Adamov, Česko",
        "image": "https://intra.zachranka.app/files/2019/09/431dae7ce1bff6a28a95e5ea1f552815.jpg",
        "mobile": "Ne",
        "attribute_type": null,
        "region": 1
    },
    {
        "id": 2251,
        "nazev": "EMERSON -ALCO CONTROLS, spol. s r.o",
        "lat": 50.010318,
        "lng": 15.229261,
        "html": "AED umístěn ve výrobní hale vedle vchodu do kantýny (podlahové značení včetně vstupních dveří)\r\n\r\ntyp: ZOLL AED Plus - 2 kusy\r\n\r\nNONSTOP",
        "address": "K Dílnám 843, 280 02 Kolín, Česko",
        "image": "https://intra.zachranka.app/files/e661e00e3c6478ca29b42fd9d36e8ebf.png",
        "mobile": "Ne",
        "attribute_type": null,
        "region": 9
    },
    {
        "id": 2253,
        "nazev": "NCO NZO",
        "lat": 49.191955,
        "lng": 16.583616,
        "html": "Národní centrum ošetřovatelství a nelékařských zdravotnických oborů\r\n\r\nAED umístěn u recepce\r\n\r\nTyp: Lifepak CR+\r\n\r\nDostupné: 5:40 – 22:00",
        "address": "Vinařská 965/6, 603 00 Brno-střed-Staré Brno, Česko",
        "image": "https://intra.zachranka.app/files/2019/09/358febc46c0478ad3eb42112e57a2b87.jpg",
        "mobile": "Ne",
        "attribute_type": null,
        "region": 1
    },
    {
        "id": 2254,
        "nazev": "Smurfit Kappa Czech s.r.o.",
        "lat": 49.13687,
        "lng": 16.666925,
        "html": "AED umístěn v safety boxu u vstupu do výrobní části závodu\r\n\r\ntyp: HeartSine samaritan PAD SAM 350P",
        "address": "Tovární 766/15, 643 00 Brno-Chrlice, Česko",
        "image": "https://intra.zachranka.app/files/2019/09/2e2c34d3c42da7aa1037265d7cf265f9.jpeg",
        "mobile": "Ne",
        "attribute_type": null,
        "region": 1
    },
    {
        "id": 2255,
        "nazev": "Golf Resort Kaskáda Brno",
        "lat": 49.278837,
        "lng": 16.530476,
        "html": "AED umístěn na recepci Golfového Resortu Kaskáda\r\n\r\ntyp: LIFEPAK CR plus\r\n\r\n6:30 - 00:30",
        "address": "Na Golfu 1772, 664 34 Kuřim, Česko",
        "image": "https://intra.zachranka.app/files/2019/09/8f0cc4800c0eff6ed5384ddc23a741c0.jpg",
        "mobile": "Ne",
        "attribute_type": null,
        "region": 1
    },
    {
        "id": 2256,
        "nazev": "Městská policie Mikulov",
        "lat": 48.807145,
        "lng": 16.638295,
        "html": "AED umístěn ve služebním vozidle\r\n\r\ntyp: Lifepack CR\r\n\r\nNONSTOP",
        "address": "Náměstí 158/1, 692 01 Mikulov, Česko",
        "image": "https://intra.zachranka.app/files/2019/09/3352d6cd407a4bb80447799b2ae333b2.jpeg",
        "mobile": "Ano",
        "attribute_type": "60",
        "region": 1
    },
    {
        "id": 2257,
        "nazev": "Aqualand Moravia",
        "lat": 48.903772,
        "lng": 16.575322,
        "html": "AED umístěn u plavčíka (stálá služba)\r\n\r\nTyp: Philips Heartstart FRx\r\n\r\n10:00 - 21:00",
        "address": "Pasohlávky 110, 691 22 Pasohlávky, Česko",
        "image": "https://intra.zachranka.app/files/2019/09/cd763e5b8f82898a83e17eeeb0cf0164.jpg",
        "mobile": "Ne",
        "attribute_type": null,
        "region": 1
    },
    {
        "id": 2259,
        "nazev": "Horská služba Říčky, Orlické hory",
        "lat": 50.226036,
        "lng": 16.460544,
        "html": "AED umístěn na stanici Horské služby Říčky v Orlických horách\r\n\r\ntyp: Lifepak 1000\r\n\r\n- číslo Horské služby: 1210",
        "address": "Říčky v Orlických horách 234, 517 61 Říčky v Orlických horách, Česko",
        "image": "https://intra.zachranka.app/files/57cbed7203ff08cdbe5973afce917222.jpg",
        "mobile": "Ano",
        "attribute_type": "60",
        "region": 7
    },
    {
        "id": 2260,
        "nazev": "Horská služba Deštné, Orlické hory",
        "lat": 50.300372,
        "lng": 16.363975,
        "html": "Stanice Horské služby Deštné v Orlických horách\r\n\r\nAED na stanici - typ: Lifepak 500\r\nAED ve vozidle - typ: LifePak 1000\r\n\r\n- číslo Horské služby: 1210",
        "address": "Deštné v Orlických horách 450, 517 91",
        "image": "https://intra.zachranka.app/files/2f57d3825e17ff4eccc8b345ab0424df.jpg",
        "mobile": "Ano",
        "attribute_type": "60",
        "region": 7
    },
    {
        "id": 2261,
        "nazev": "Horská služba Čenkovice, Orlické hory",
        "lat": 50.014646,
        "lng": 16.694014,
        "html": "Stanice Horské služby Čenkovice, Orlické hory\r\n\r\nAED na stanici - typ: Corpuls \r\nAED ve vozidlech - typ: Corpuls \r\nAED na služebně spodní stanice lanovky Mlýnický Dvůr - typ: Corpuls \r\n\r\n- číslo Horské služby: 1210",
        "address": "Čenkovice 82, 561 64 Čenkovice, Česko",
        "image": "https://intra.zachranka.app/files/abfb4b69c27352856cf15bade49b9290.png",
        "mobile": "Ano",
        "attribute_type": "60",
        "region": 6
    },
    {
        "id": 2262,
        "nazev": "Městská policie Rožnov pod Radhoštěm",
        "lat": 49.460468,
        "lng": 18.147687,
        "html": "AED umístěn ve výjezdovém vozidle\r\n\r\ntyp: Philips HeartStart FRx\r\n \r\nDosah: katastrální území města Rožnov pod Radhoštěm\r\n\r\nNONSTOP",
        "address": "Čechova 1027, 756 61 Rožnov pod Radhoštěm, Česko",
        "image": "https://intra.zachranka.app/files/27e139a3b630ffd1509f17c94182666f.JPG",
        "mobile": "Ano",
        "attribute_type": "60",
        "region": 2
    },
    {
        "id": 2264,
        "nazev": "firma ON Semiconductor Czech Republic, ul. 1. máje",
        "lat": 49.46233,
        "lng": 18.123128,
        "html": "AED umístěn na vrátnici v budově M8\r\n\r\ntyp: Lifepak 1000",
        "address": "1. máje 2634, 756 61 Rožnov pod Radhoštěm, Česko",
        "image": "https://intra.zachranka.app/files/cf9d744e97a25eba75c8ee2722a7ae7d.jpg",
        "mobile": "Ne",
        "attribute_type": null,
        "region": 2
    },
    {
        "id": 2265,
        "nazev": "firma ON Semiconductor Czech Republic, ul. Sklářská",
        "lat": 49.464009,
        "lng": 18.120839,
        "html": "AED umístěn na vrátnici v budově V12\r\n\r\ntyp: Lifepak 1000",
        "address": "Sklářská 2645, 756 61 Rožnov pod Radhoštěm, Česko",
        "image": "https://intra.zachranka.app/files/63bc094225a94fcb9f4a8079e0808617.jpg",
        "mobile": "Ne",
        "attribute_type": null,
        "region": 2
    },
    {
        "id": 2268,
        "nazev": "Hasiči Jihlava (HZS)",
        "lat": 49.407486,
        "lng": 15.584165,
        "html": "AED umístěn ve výjezdovém vozidle Hasičského záchranného sboru",
        "address": "Sokolovská 3064/2, 586 01 Jihlava, Česko",
        "image": "https://intra.zachranka.app/files/2019/09/38957fa10c9a9ee00a38c159531c43b0.jpeg",
        "mobile": "Ano",
        "attribute_type": "60",
        "region": 5
    },
    {
        "id": 2269,
        "nazev": "Hasiči Třešť (HZS)",
        "lat": 49.293823,
        "lng": 15.48581,
        "html": "AED umístěn na 1. vozidle (v 1. výjezdové stanici Třešť) Hasičského záchranného sboru\r\n\r\ntyp: ZOLL AED plus",
        "address": "Dr. Richtra 992/1, 589 01 Třešť, Česko",
        "image": "https://intra.zachranka.app/files/2019/09/35a805e62364d4cb8ff170b133dcdcb6.jpg",
        "mobile": "Ano",
        "attribute_type": "60",
        "region": 5
    },
    {
        "id": 2270,
        "nazev": "Hasiči Telč (HZS)",
        "lat": 49.178695,
        "lng": 15.45344,
        "html": "AED umístěn ve vozidle prvního výjezdu Hasičského záchranného sboru\r\n\r\ntyp: Zoll",
        "address": "Luční 586, Staré Město, 588 56 Telč, Česko",
        "image": "https://intra.zachranka.app/files/2019/09/e75613f02478c1362feaf63d0edb371a.jpg",
        "mobile": "Ano",
        "attribute_type": "60",
        "region": 5
    },
    {
        "id": 2271,
        "nazev": "Hasiči Polná (HZS)",
        "lat": 49.488404,
        "lng": 15.722051,
        "html": "AED umístěn na 1. výjezdovém autě Hasičského záchranného sboru Polná\r\n\r\ntyp: Zoll AED Plus\r\n\r\nDostupnost v rámci výjezdu - okruh 15 km od stanice.",
        "address": "Varhánkova 278, 588 13 Polná, Česko",
        "image": "https://intra.zachranka.app/files/2019/09/03ab5564dcea27bda287ac40a62b05d4.jpg",
        "mobile": "Ano",
        "attribute_type": "60",
        "region": 5
    },
    {
        "id": 2272,
        "nazev": "BOSCH Diesel s.r.o., ul. Na Dolech",
        "lat": 49.410359,
        "lng": 15.573399,
        "html": "AED umístěn ve výrobní hale\r\n\r\ntyp: Heart Sine samaritan SAM 350P\r\n\r\nAED jsou v případě potřeby k dispozici zaměstnancům.",
        "address": "Na Dolech 4A, 586 01 Jihlava, Česko",
        "image": "https://intra.zachranka.app/files/2019/09/ea106a106d68485d66fb483f04ba6240.jpg",
        "mobile": "Ne",
        "attribute_type": null,
        "region": 5
    },